time_boot_ms,pitch,roll,yaw,vx,vy,vz,relative_alt
828760.0,0.25195812792108635,0.22047908003718017,0.6122241129757987,-0.09,0.13,0.02,10.025
828760.0,0.25195812792108635,0.22047908003718017,0.6122241129757987,-0.09,0.13,0.02,10.025
829009.0,-0.012419129029324544,-0.19342209939318125,0.6161675333652762,-0.08,0.11,0.02,10.025
829009.0,-0.012419129029324544,-0.19342209939318125,0.6161675333652762,-0.08,0.11,0.02,10.025
829259.0,0.231581619234102,0.12005514217581327,0.6112415795915218,-0.07,0.1,0.02,10.025
829259.0,0.231581619234102,0.12005514217581327,0.6112415795915218,-0.07,0.1,0.02,10.025
829509.0,0.4685800053668473,0.45092209873251315,0.609505057355899,-0.07,0.1,0.02,10.025
829509.0,0.4685800053668473,0.45092209873251315,0.609505057355899,-0.07,0.1,0.02,10.025
829759.0,0.4906907684532066,0.46800813710641737,0.6102368480924424,-0.08,0.11,0.02,10.025
829759.0,0.4906907684532066,0.46800813710641737,0.6102368480924424,-0.08,0.11,0.02,10.025
830010.0,0.3896321966281971,0.4686559378605108,0.6107152281386077,-0.08,0.11,-0.05,10.033
830010.0,0.3896321966281971,0.4686559378605108,0.6107152281386077,-0.08,0.11,-0.05,10.033
830260.0,0.3455104819308105,0.5604764653896664,0.613784170870912,-0.09,0.11,-0.11,10.061
830260.0,0.3455104819308105,0.5604764653896664,0.613784170870912,-0.09,0.11,-0.11,10.061
830510.0,0.39473949726050056,0.5609089551023458,0.616295065803685,-0.09,0.12,-0.13,10.098
830510.0,0.39473949726050056,0.5609089551023458,0.616295065803685,-0.09,0.12,-0.13,10.098
830760.0,0.3777240819753972,0.5777885403364158,0.6146187346101228,-0.09,0.12,-0.13,10.138
830760.0,0.3777240819753972,0.5777885403364158,0.6146187346101228,-0.09,0.12,-0.13,10.138
831009.0,0.35018043701282164,0.562744408359228,0.6109884890662611,-0.09,0.13,-0.13,10.178
831009.0,0.35018043701282164,0.562744408359228,0.6109884890662611,-0.09,0.13,-0.13,10.178
831259.0,0.3468171291355457,0.5342513137411679,0.6118563499776758,-0.09,0.13,-0.12,10.217
831259.0,0.3468171291355457,0.5342513137411679,0.6118563499776758,-0.09,0.13,-0.12,10.217
831509.0,0.3454867096708477,0.5395612522123239,0.6102934639573594,-0.09,0.13,-0.11,10.255
831509.0,0.3454867096708477,0.5395612522123239,0.6102934639573594,-0.09,0.13,-0.11,10.255
831759.0,0.3195002944781822,0.5338917683143901,0.6092936950175988,-0.09,0.13,-0.11,10.291
831759.0,0.3195002944781822,0.5338917683143901,0.6092936950175988,-0.09,0.13,-0.11,10.291
832010.0,0.3272194220965015,0.45986836588476043,0.6065845111554838,-0.09,0.14,-0.11,10.327
832010.0,0.3272194220965015,0.45986836588476043,0.6065845111554838,-0.09,0.14,-0.11,10.327
832260.0,0.4074104319857998,0.4610490814766735,0.6117941312232053,-0.08,0.13,-0.11,10.362
832260.0,0.4074104319857998,0.4610490814766735,0.6117941312232053,-0.08,0.13,-0.11,10.362
832510.0,0.466612217194796,0.5095253352546341,0.6160361589454592,-0.09,0.14,-0.11,10.397
832510.0,0.466612217194796,0.5095253352546341,0.6160361589454592,-0.09,0.14,-0.11,10.397
832760.0,0.38106425792294496,0.43001814469513044,0.6153365448032089,-0.09,0.14,-0.11,10.431000000000001
832760.0,0.38106425792294496,0.43001814469513044,0.6153365448032089,-0.09,0.14,-0.11,10.431000000000001
833009.0,0.35845467758376315,0.3903933625142568,0.6096951820747486,-0.09,0.14,-0.11,10.465
833009.0,0.35845467758376315,0.3903933625142568,0.6096951820747486,-0.09,0.14,-0.11,10.465
833259.0,0.35018966844037175,0.4214878253911663,0.6061677095335544,-0.09,0.14,-0.11,10.5
833259.0,0.35018966844037175,0.4214878253911663,0.6061677095335544,-0.09,0.14,-0.11,10.5
833509.0,0.3652697923128343,0.34974762713502494,0.6095085258113369,-0.09,0.13,-0.11,10.534
833509.0,0.3652697923128343,0.34974762713502494,0.6095085258113369,-0.09,0.13,-0.11,10.534
833759.0,0.3768997101590884,0.3624971357162058,0.6095552165576162,-0.13,0.13,-0.11,10.568
833759.0,0.3768997101590884,0.3624971357162058,0.6095552165576162,-0.13,0.13,-0.11,10.568
834009.0,-4.940763758309055,0.4642755454467112,0.5804837436550735,-0.8300000000000001,0.11,-0.1,10.602
834009.0,-4.940763758309055,0.4642755454467112,0.5804837436550735,-0.8300000000000001,0.11,-0.1,10.602
834260.0,-15.763586538316481,0.6438164592906052,0.5419351698357264,-1.01,0.1,-0.09,10.634
834260.0,-15.763586538316481,0.6438164592906052,0.5419351698357264,-1.01,0.1,-0.09,10.634
834510.0,-19.0369751886126,0.6590254229423723,0.6127290667267037,-0.85,0.1,-0.09,10.663
834510.0,-19.0369751886126,0.6590254229423723,0.6127290667267037,-0.85,0.1,-0.09,10.663
834760.0,-18.804869992689937,0.570865129756403,0.6925121862565052,-0.7000000000000001,0.11,-0.1,10.695
834760.0,-18.804869992689937,0.570865129756403,0.6925121862565052,-0.7000000000000001,0.11,-0.1,10.695
835010.0,-19.63889414695644,0.4988921714599523,0.6969561848069505,-0.55,0.11,-0.11,10.729000000000001
835010.0,-19.63889414695644,0.4988921714599523,0.6969561848069505,-0.55,0.11,-0.11,10.729000000000001
835259.0,-20.839588469078613,0.5140639425972546,0.6604450350726772,-0.39,0.11,-0.11,10.763
835259.0,-20.839588469078613,0.5140639425972546,0.6604450350726772,-0.39,0.11,-0.11,10.763
835509.0,-21.277869755287284,0.5973564986999734,0.6230631963017859,-0.2,0.11,-0.12,10.799
835509.0,-21.277869755287284,0.5973564986999734,0.6230631963017859,-0.2,0.11,-0.12,10.799
835759.0,-21.033287511298298,0.6800379663153877,0.6049183185239709,-0.05,0.12,-0.12,10.834
835759.0,-21.033287511298298,0.6800379663153877,0.6049183185239709,-0.05,0.12,-0.12,10.834
836009.0,-20.72346330035735,0.6946059060413786,0.6079990540047641,0.06,0.12,-0.12,10.870000000000001
836009.0,-20.72346330035735,0.6946059060413786,0.6079990540047641,0.06,0.12,-0.12,10.870000000000001
836260.0,-20.456175800019945,0.7391343638399247,0.61804177996221,0.15,0.12,-0.12,10.906
836260.0,-20.456175800019945,0.7391343638399247,0.61804177996221,0.15,0.12,-0.12,10.906
836510.0,-20.103611680347644,0.7639726669217934,0.6290516180174474,0.21,0.13,-0.12,10.942
836510.0,-20.103611680347644,0.7639726669217934,0.6290516180174474,0.21,0.13,-0.12,10.942
836760.0,-19.58736036966869,0.8175184151677843,0.6339204223177558,0.25,0.13,-0.13,10.978
836760.0,-19.58736036966869,0.8175184151677843,0.6339204223177558,0.25,0.13,-0.13,10.978
837010.0,-19.163135612771907,0.8828607538840336,0.627508742316965,0.25,0.13,-0.12,11.013
837010.0,-19.163135612771907,0.8828607538840336,0.627508742316965,0.25,0.13,-0.12,11.013
837259.0,-18.85648914734231,0.8571306308678023,0.6204088140355897,0.24,0.14,-0.12,11.049
837259.0,-18.85648914734231,0.8571306308678023,0.6204088140355897,0.24,0.14,-0.12,11.049
837509.0,-18.54366648335572,0.8710792111742905,0.6210038409061741,0.22,0.14,-0.12,11.084
837509.0,-18.54366648335572,0.8710792111742905,0.6210038409061741,0.22,0.14,-0.12,11.084
837759.0,-18.318340250184296,0.8714107955141536,0.6251413347176151,0.18,0.14,-0.12,11.119
837759.0,-18.318340250184296,0.8714107955141536,0.6251413347176151,0.18,0.14,-0.12,11.119
838009.0,-18.211575855720533,0.8699099148048961,0.6234873617214142,0.14,0.14,-0.12,11.154
838009.0,-18.211575855720533,0.8699099148048961,0.6234873617214142,0.14,0.14,-0.12,11.154
838260.0,-18.07213583626743,0.8561942546212759,0.6222206817954942,0.13,0.14,-0.12,11.188
838260.0,-18.07213583626743,0.8561942546212759,0.6222206817954942,0.13,0.14,-0.12,11.188
838510.0,-17.734254915763362,0.8211022367696312,0.623288699266102,0.07,0.14,-0.12,11.223
838510.0,-17.734254915763362,0.8211022367696312,0.623288699266102,0.07,0.14,-0.12,11.223
838760.0,-17.842996649991843,0.8288780869745734,0.6182475394109566,0.05,0.14,-0.12,11.258000000000001
838760.0,-17.842996649991843,0.8288780869745734,0.6182475394109566,0.05,0.14,-0.12,11.258000000000001
839010.0,-17.677188685247906,0.8012651796249457,0.6170969193400739,0.02,0.13,-0.12,11.292
839010.0,-17.677188685247906,0.8012651796249457,0.6170969193400739,0.02,0.13,-0.12,11.292
839259.0,-17.639076229679233,0.8321386485296083,0.6161230304139653,0.0,0.13,-0.12,11.326
839259.0,-17.639076229679233,0.8321386485296083,0.6161230304139653,0.0,0.13,-0.12,11.326
839509.0,-17.745021001442595,0.7836486276516018,0.6162903700486306,-0.04,0.13,-0.12,11.361
839509.0,-17.745021001442595,0.7836486276516018,0.6162903700486306,-0.04,0.13,-0.12,11.361
839759.0,-17.74681221855243,0.6952966089211962,0.6189830654072024,-0.05,0.12,-0.12,11.395
839759.0,-17.74681221855243,0.6952966089211962,0.6189830654072024,-0.05,0.12,-0.12,11.395
840009.0,-17.61441412413361,0.6889338074616532,0.6218004650789797,-0.06,0.12,-0.13,11.429
840009.0,-17.61441412413361,0.6889338074616532,0.6218004650789797,-0.06,0.12,-0.13,11.429
840259.0,-17.667288326045973,0.6571490952721758,0.62047748945326,-0.07,0.12,-0.13,11.465
840259.0,-17.667288326045973,0.6571490952721758,0.62047748945326,-0.07,0.12,-0.13,11.465
840510.0,-17.78177083427185,0.6891672611930502,0.6229423339699883,-0.1,0.11,-0.13,11.5
840510.0,-17.78177083427185,0.6891672611930502,0.6229423339699883,-0.1,0.11,-0.13,11.5
840760.0,-18.042137645432735,0.7274897450786992,0.6211070941565177,-0.11,0.11,-0.12,11.535
840760.0,-18.042137645432735,0.7274897450786992,0.6211070941565177,-0.11,0.11,-0.12,11.535
841010.0,-18.01871009657959,0.7142543859319483,0.6179033085489586,-0.1,0.11,-0.12,11.569
841010.0,-18.01871009657959,0.7142543859319483,0.6179033085489586,-0.1,0.11,-0.12,11.569
841260.0,-17.91702053266915,0.6502491101065819,0.6130762324356107,-0.1,0.1,-0.13,11.604000000000001
841260.0,-17.91702053266915,0.6502491101065819,0.6130762324356107,-0.1,0.1,-0.13,11.604000000000001
841509.0,-17.90443420157611,0.724768448302978,0.610249227810313,-0.11,0.09,-0.13,11.639000000000001
841509.0,-17.90443420157611,0.724768448302978,0.610249227810313,-0.11,0.09,-0.13,11.639000000000001
841759.0,-18.085038063609584,0.8482752906088807,0.6082210885136423,-0.35000000000000003,0.08,-0.12,11.674
841759.0,-18.085038063609584,0.8482752906088807,0.6082210885136423,-0.35000000000000003,0.08,-0.12,11.674
842009.0,-24.91226976171172,1.053537042680603,0.518433716201329,-0.93,0.07,-0.1,11.707
842009.0,-24.91226976171172,1.053537042680603,0.518433716201329,-0.93,0.07,-0.1,11.707
842259.0,-32.723152860680536,1.1834721068516927,0.48726521514103366,-1.02,0.07,-0.07,11.732000000000001
842259.0,-32.723152860680536,1.1834721068516927,0.48726521514103366,-1.02,0.07,-0.07,11.732000000000001
842510.0,-34.52050348039105,1.0613316759057627,0.633503780778385,-0.8200000000000001,0.08,-0.08,11.754
842510.0,-34.52050348039105,1.0613316759057627,0.633503780778385,-0.8200000000000001,0.08,-0.08,11.754
842760.0,-33.90232013408612,0.8498234490337994,0.7484053317820121,-0.63,0.08,-0.11,11.782
842760.0,-33.90232013408612,0.8498234490337994,0.7484053317820121,-0.63,0.08,-0.11,11.782
843010.0,-34.2172157604858,0.7624070594979796,0.7417312764675575,-0.49,0.08,-0.13,11.816
843010.0,-34.2172157604858,0.7624070594979796,0.7417312764675575,-0.49,0.08,-0.13,11.816
843260.0,-35.13662752466122,0.8641005187506829,0.6737365831975219,-0.34,0.08,-0.14,11.853
843260.0,-35.13662752466122,0.8641005187506829,0.6737365831975219,-0.34,0.08,-0.14,11.853
843509.0,-35.57083631057727,1.0445424305956368,0.6121860133268348,-0.17,0.08,-0.14,11.891
843509.0,-35.57083631057727,1.0445424305956368,0.6121860133268348,-0.17,0.08,-0.14,11.891
843759.0,-35.426565639833676,1.1355363451526623,0.5857084114833101,-0.02,0.09,-0.14,11.929
843759.0,-35.426565639833676,1.1355363451526623,0.5857084114833101,-0.02,0.09,-0.14,11.929
844009.0,-35.127116486241974,1.0471847533090797,0.5908441267697778,0.08,0.09,-0.15,11.968
844009.0,-35.127116486241974,1.0471847533090797,0.5908441267697778,0.08,0.09,-0.15,11.968
844259.0,-34.863976618278066,1.092311813155354,0.6075538110482438,0.16,0.09,-0.15,12.007
844259.0,-34.863976618278066,1.092311813155354,0.6075538110482438,0.16,0.09,-0.15,12.007
844510.0,-34.5843589189415,1.2044184827671234,0.6233281329363882,0.21,0.1,-0.14,12.046
844510.0,-34.5843589189415,1.2044184827671234,0.6233281329363882,0.21,0.1,-0.14,12.046
844760.0,-34.27144404740112,1.2217162570052982,0.6339389918945617,0.23,0.1,-0.14,12.084
844760.0,-34.27144404740112,1.2217162570052982,0.6339389918945617,0.23,0.1,-0.14,12.084
845010.0,-33.97555000727241,1.2098246842168943,0.6327875714108857,0.23,0.11,-0.14,12.122
845010.0,-33.97555000727241,1.2098246842168943,0.6327875714108857,0.23,0.11,-0.14,12.122
845260.0,-33.72744680076629,1.2932167049494014,0.6225154471468626,0.22,0.1,-0.14,12.159
845260.0,-33.72744680076629,1.2932167049494014,0.6225154471468626,0.22,0.1,-0.14,12.159
845509.0,-33.52351784271721,1.354786698170541,0.6105780907466786,0.2,0.11,-0.13,12.195
845509.0,-33.52351784271721,1.354786698170541,0.6105780907466786,0.2,0.11,-0.13,12.195
845759.0,-33.38720775745127,1.2838360804546236,0.6062320093612877,0.16,0.12,-0.13,12.23
845759.0,-33.38720775745127,1.2838360804546236,0.6062320093612877,0.16,0.12,-0.13,12.23
846009.0,-33.29652333584101,1.2243670107334979,0.6099428831538674,0.13,0.11,-0.13,12.265
846009.0,-33.29652333584101,1.2243670107334979,0.6099428831538674,0.13,0.11,-0.13,12.265
846259.0,-33.08126309395889,1.2832385456239532,0.6172024137462389,0.11,0.11,-0.13,12.3
846259.0,-33.08126309395889,1.2832385456239532,0.6172024137462389,0.11,0.11,-0.13,12.3
846509.0,-32.928902064143415,1.3078955285276994,0.6158965135934442,0.06,0.11,-0.13,12.335
846509.0,-32.928902064143415,1.3078955285276994,0.6158965135934442,0.06,0.11,-0.13,12.335
846760.0,-32.90710010031273,1.2994871387725906,0.6140428642857262,0.05,0.11,-0.13,12.370000000000001
846760.0,-32.90710010031273,1.2994871387725906,0.6140428642857262,0.05,0.11,-0.13,12.370000000000001
847010.0,-32.721667294536054,1.2273742149590074,0.614432131707564,0.01,0.11,-0.13,12.405000000000001
847010.0,-32.721667294536054,1.2273742149590074,0.614432131707564,0.01,0.11,-0.13,12.405000000000001
847260.0,-32.817665603320584,1.189706255294916,0.6048946796661403,-0.04,0.1,-0.14,12.441
847260.0,-32.817665603320584,1.189706255294916,0.6048946796661403,-0.04,0.1,-0.14,12.441
847510.0,-33.2752063154414,1.2378858760916571,0.5971578362446613,-0.07,0.1,-0.13,12.475
847510.0,-33.2752063154414,1.2378858760916571,0.5971578362446613,-0.07,0.1,-0.13,12.475
847759.0,-33.21431176389615,1.1947834337257626,0.6106549303748412,-0.06,0.1,-0.13,12.509
847759.0,-33.21431176389615,1.1947834337257626,0.6106549303748412,-0.06,0.1,-0.13,12.509
848009.0,-32.98782610611311,1.0595151657516566,0.6245508435195264,-0.07,0.09,-0.13,12.544
848009.0,-32.98782610611311,1.0595151657516566,0.6245508435195264,-0.07,0.09,-0.13,12.544
848259.0,-32.96427561385491,1.0664614681375597,0.6267567811780289,-0.07,0.09,-0.13,12.579
848259.0,-32.96427561385491,1.0664614681375597,0.6267567811780289,-0.07,0.09,-0.13,12.579
848509.0,-32.93926004601974,1.0932736958895621,0.6225930338269656,-0.08,0.08,-0.13,12.614
848509.0,-32.93926004601974,1.0932736958895621,0.6225930338269656,-0.08,0.08,-0.13,12.614
848760.0,-32.93242644175514,1.1613139059671134,0.613730436492051,-0.09,0.07,-0.13,12.649000000000001
848760.0,-32.93242644175514,1.1613139059671134,0.613730436492051,-0.09,0.07,-0.13,12.649000000000001
849010.0,-32.97067208601263,1.230638831938862,0.6060909766270975,-0.1,0.07,-0.13,12.683
849010.0,-32.97067208601263,1.230638831938862,0.6060909766270975,-0.1,0.07,-0.13,12.683
849260.0,-33.015665957170086,1.2256416947873514,0.6008077719432398,-0.11,0.07,-0.13,12.718
849260.0,-33.015665957170086,1.2256416947873514,0.6008077719432398,-0.11,0.07,-0.13,12.718
849510.0,-33.04958467658837,1.2156957654170493,0.5995968541085905,-0.11,0.07,-0.13,12.753
849510.0,-33.04958467658837,1.2156957654170493,0.5995968541085905,-0.11,0.07,-0.13,12.753
849759.0,-33.07772164087424,1.2025511730810654,0.6031084784764762,-0.11,0.07,-0.13,12.787
849759.0,-33.07772164087424,1.2025511730810654,0.6031084784764762,-0.11,0.07,-0.13,12.787
850009.0,-33.06513701732849,1.1940816317885439,0.6092020210723326,-0.11,0.06,-0.13,12.823
850009.0,-33.06513701732849,1.1940816317885439,0.6092020210723326,-0.11,0.06,-0.13,12.823
850259.0,-33.08147482982316,1.1782651548266156,0.6120518641426674,-0.11,0.06,-0.13,12.858
850259.0,-33.08147482982316,1.1782651548266156,0.6120518641426674,-0.11,0.06,-0.13,12.858
850509.0,-33.05349837498279,1.1581124682370816,0.6110216795167591,-0.11,0.06,-0.13,12.893
850509.0,-33.05349837498279,1.1581124682370816,0.6110216795167591,-0.11,0.06,-0.13,12.893
850760.0,-33.05329346930768,1.2095633227594356,0.6043701424822245,-0.11,0.06,-0.14,12.929
850760.0,-33.05329346930768,1.2095633227594356,0.6043701424822245,-0.11,0.06,-0.14,12.929
851010.0,-33.17464885538589,1.1530809666963093,0.6022080140839452,-0.11,0.06,-0.13,12.965
851010.0,-33.17464885538589,1.1530809666963093,0.6022080140839452,-0.11,0.06,-0.13,12.965
851260.0,-33.43711253462197,1.1812600860559606,0.5982462375610734,-0.65,0.04,-0.13,13.0
851260.0,-33.43711253462197,1.1812600860559606,0.5982462375610734,-0.65,0.04,-0.13,13.0
851510.0,-41.423929353779265,1.5274674340450975,0.43361600020128754,-1.87,-0.01,-0.08,13.030000000000001
851510.0,-41.423929353779265,1.5274674340450975,0.43361600020128754,-1.87,-0.01,-0.08,13.030000000000001
851759.0,-45.83847527474985,1.664512511698759,0.4770449042651674,-2.38,-0.03,-0.04,13.046000000000001
851759.0,-45.83847527474985,1.664512511698759,0.4770449042651674,-2.38,-0.03,-0.04,13.046000000000001
852009.0,-45.86424216339372,1.3951951645173941,0.679453238089411,-2.61,-0.03,-0.07,13.064
852009.0,-45.86424216339372,1.3951951645173941,0.679453238089411,-2.61,-0.03,-0.07,13.064
852259.0,-45.16901086815646,1.0567650541153746,0.7831026927656769,-2.84,-0.04,-0.12,13.093
852259.0,-45.16901086815646,1.0567650541153746,0.7831026927656769,-2.84,-0.04,-0.12,13.093
852509.0,-44.88994982923725,0.8905835100403495,0.750092014981035,-3.09,-0.06,-0.16,13.132
852509.0,-44.88994982923725,0.8905835100403495,0.750092014981035,-3.09,-0.06,-0.16,13.132
852759.0,-44.880230470048325,0.894904885350852,0.6510553392329079,-3.33,-0.08,-0.17,13.176
852759.0,-44.880230470048325,0.894904885350852,0.6510553392329079,-3.33,-0.08,-0.17,13.176
853010.0,-44.922611793848255,1.0162607516767295,0.557684518844718,-3.5500000000000003,-0.11,-0.17,13.221
853010.0,-44.922611793848255,1.0162607516767295,0.557684518844718,-3.5500000000000003,-0.11,-0.17,13.221
853260.0,-44.942897455683195,1.1266486682168888,0.5052718883098616,-3.74,-0.12,-0.16,13.267
853260.0,-44.942897455683195,1.1266486682168888,0.5052718883098616,-3.74,-0.12,-0.16,13.267
853510.0,-44.94443083315186,1.1308094273601903,0.5110069526959979,-3.91,-0.12,-0.15,13.311
853510.0,-44.94443083315186,1.1308094273601903,0.5110069526959979,-3.91,-0.12,-0.15,13.311
853760.0,-44.94589932382341,1.0253017877037107,0.5540652656365517,-4.05,-0.12,-0.14,13.352
853760.0,-44.94589932382341,1.0253017877037107,0.5540652656365517,-4.05,-0.12,-0.14,13.352
854009.0,-44.95137030534859,0.9344286821176299,0.6001636530879958,-4.17,-0.14,-0.13,13.389000000000001
854009.0,-44.95137030534859,0.9344286821176299,0.6001636530879958,-4.17,-0.14,-0.13,13.389000000000001
854259.0,-44.96062521167396,0.9269418342919439,0.6335959883321802,-4.2700000000000005,-0.15,-0.13,13.426
854259.0,-44.96062521167396,0.9269418342919439,0.6335959883321802,-4.2700000000000005,-0.15,-0.13,13.426
854509.0,-44.963726117557144,0.9761442759168943,0.6305264586304942,-4.36,-0.16,-0.12,13.462
854509.0,-44.963726117557144,0.9761442759168943,0.6305264586304942,-4.36,-0.16,-0.12,13.462
854759.0,-44.962745985411246,1.0228401448381559,0.6178355936266402,-4.42,-0.16,-0.12,13.497
854759.0,-44.962745985411246,1.0228401448381559,0.6178355936266402,-4.42,-0.16,-0.12,13.497
855010.0,-44.97011575952569,1.0063154626366622,0.6089668064327902,-4.48,-0.15,-0.12,13.532
855010.0,-44.97011575952569,1.0063154626366622,0.6089668064327902,-4.48,-0.15,-0.12,13.532
855260.0,-44.97163206152143,0.9973887255565728,0.607683157755651,-4.54,-0.16,-0.12,13.567
855260.0,-44.97163206152143,0.9973887255565728,0.607683157755651,-4.54,-0.16,-0.12,13.567
855510.0,-44.97471247683711,1.0171118572803366,0.6100326361084295,-4.58,-0.15,-0.12,13.601
855510.0,-44.97471247683711,1.0171118572803366,0.6100326361084295,-4.58,-0.15,-0.12,13.601
855760.0,-44.98032689233486,0.9962618510652265,0.6126786407207219,-4.6000000000000005,-0.15,-0.13,13.636000000000001
855760.0,-44.98032689233486,0.9962618510652265,0.6126786407207219,-4.6000000000000005,-0.15,-0.13,13.636000000000001
856009.0,-44.98679508147887,0.9804449472164752,0.6140252552042722,-4.63,-0.14,-0.12,13.671000000000001
856009.0,-44.98679508147887,0.9804449472164752,0.6140252552042722,-4.63,-0.14,-0.12,13.671000000000001
856259.0,-44.98767959097638,0.9859384470215753,0.6141800550385083,-4.65,-0.15,-0.13,13.706
856259.0,-44.98767959097638,0.9859384470215753,0.6141800550385083,-4.65,-0.15,-0.13,13.706
856509.0,-44.98181245847934,1.018713856805822,0.6119780660831196,-4.67,-0.15,-0.13,13.74
856509.0,-44.98181245847934,1.018713856805822,0.6119780660831196,-4.67,-0.15,-0.13,13.74
856759.0,-44.97762213742354,1.0726499396907085,0.6110031099399531,-4.72,-0.16,-0.13,13.774000000000001
856759.0,-44.97762213742354,1.0726499396907085,0.6110031099399531,-4.72,-0.16,-0.13,13.774000000000001
857010.0,-44.978260760110935,1.1024995739109569,0.6110599392482817,-4.73,-0.16,-0.13,13.809000000000001
857010.0,-44.978260760110935,1.1024995739109569,0.6110599392482817,-4.73,-0.16,-0.13,13.809000000000001
857260.0,-44.97762213742354,1.1069825258840122,0.6099025957099349,-4.74,-0.16,-0.13,13.843
857260.0,-44.97762213742354,1.1069825258840122,0.6099025957099349,-4.74,-0.16,-0.13,13.843
857510.0,-44.98135483580495,1.0928871498712216,0.609991388169145,-4.75,-0.16,-0.13,13.878
857510.0,-44.98135483580495,1.0928871498712216,0.609991388169145,-4.75,-0.16,-0.13,13.878
857760.0,-44.98237936418045,1.1070279893306751,0.6096205302415545,-4.76,-0.15,-0.13,13.913
857760.0,-44.98237936418045,1.1070279893306751,0.6096205302415545,-4.76,-0.15,-0.13,13.913
858009.0,-44.991982610153485,1.0875951406466369,0.6097708477641477,-4.7700000000000005,-0.15,-0.13,13.948
858009.0,-44.991982610153485,1.0875951406466369,0.6097708477641477,-4.7700000000000005,-0.15,-0.13,13.948
858259.0,-44.99035361003644,1.0746900318184267,0.608462012764444,-4.7700000000000005,-0.15,-0.13,13.983
858259.0,-44.99035361003644,1.0746900318184267,0.608462012764444,-4.7700000000000005,-0.15,-0.13,13.983
858509.0,-44.98105089238688,1.1043681642574843,0.6086699600081591,-4.7700000000000005,-0.16,-0.13,14.018
858509.0,-44.98105089238688,1.1043681642574843,0.6086699600081591,-4.7700000000000005,-0.16,-0.13,14.018
858759.0,-44.97790900536868,1.1293678305584944,0.6075275041477687,-4.7700000000000005,-0.16,-0.13,14.053
858759.0,-44.97790900536868,1.1293678305584944,0.6075275041477687,-4.7700000000000005,-0.16,-0.13,14.053
859009.0,-44.980688892360874,1.1527301724494057,0.6062149338883627,-4.7700000000000005,-0.16,-0.13,14.089
859009.0,-44.980688892360874,1.1527301724494057,0.6062149338883627,-4.7700000000000005,-0.16,-0.13,14.089
859260.0,-44.98796304382694,1.1494077123050177,0.6051368312165585,-4.78,-0.15,-0.13,14.124
859260.0,-44.98796304382694,1.1494077123050177,0.6051368312165585,-4.78,-0.15,-0.13,14.124
859510.0,-44.98890219483781,1.1084685189153132,0.6030433248750966,-4.7700000000000005,-0.16,-0.13,14.158
859510.0,-44.98890219483781,1.1084685189153132,0.6030433248750966,-4.7700000000000005,-0.16,-0.13,14.158
859760.0,-44.98375906239279,1.1472574833769331,0.5993989387052189,-4.7700000000000005,-0.16,-0.13,14.193
859760.0,-44.98375906239279,1.1472574833769331,0.5993989387052189,-4.7700000000000005,-0.16,-0.13,14.193
860010.0,-44.98331851519133,1.1731463549305143,0.5989504407366723,-4.7700000000000005,-0.16,-0.13,14.228
860010.0,-44.98331851519133,1.1731463549305143,0.5989504407366723,-4.7700000000000005,-0.16,-0.13,14.228
860259.0,-44.99070877987328,1.1655663390556812,0.5990518797180175,-4.78,-0.16,-0.13,14.263
860259.0,-44.99070877987328,1.1655663390556812,0.5990518797180175,-4.78,-0.16,-0.13,14.263
860509.0,-44.988871458986544,1.1724830795290826,0.6015432445786326,-4.78,-0.16,-0.13,14.298
860509.0,-44.988871458986544,1.1724830795290826,0.6015432445786326,-4.78,-0.16,-0.13,14.298
860759.0,-44.98572957196834,1.1893945211923285,0.603765350575561,-3.63,-0.11,-0.13,14.333
860759.0,-44.98572957196834,1.1893945211923285,0.603765350575561,-3.63,-0.11,-0.13,14.333
861009.0,-44.980139062132686,1.104368697866013,0.6091887875808156,-2.31,-0.05,-0.14,14.369
861009.0,-44.980139062132686,1.104368697866013,0.6091887875808156,-2.31,-0.05,-0.14,14.369
861260.0,-44.97061777842969,1.0104944711916521,0.606794432750756,-1.2,0.0,-0.13,14.405000000000001
861260.0,-44.97061777842969,1.0104944711916521,0.606794432750756,-1.2,0.0,-0.13,14.405000000000001
861510.0,-44.95514739995961,1.1273423593044682,0.5920994408340322,-0.28,0.01,-0.13,14.439
861510.0,-44.95514739995961,1.1273423593044682,0.5920994408340322,-0.28,0.01,-0.13,14.439
861760.0,-43.940304232700775,1.5325345806356008,0.5980865818892244,0.48,0.04,-0.14,14.472
861760.0,-43.940304232700775,1.5325345806356008,0.5980865818892244,0.48,0.04,-0.14,14.472
862010.0,-40.72855462456943,1.9113697422898885,0.6549094869154992,0.99,0.07,-0.16,14.507
862010.0,-40.72855462456943,1.9113697422898885,0.6549094869154992,0.99,0.07,-0.16,14.507
862259.0,-37.47703965509028,2.213450653146158,0.6566183148684718,1.18,0.1,-0.18,14.547
862259.0,-37.47703965509028,2.213450653146158,0.6566183148684718,1.18,0.1,-0.18,14.547
862509.0,-35.549584176974776,2.4903034065293395,0.5763083102772272,1.17,0.14,-0.18,14.589
862509.0,-35.549584176974776,2.4903034065293395,0.5763083102772272,1.17,0.14,-0.18,14.589
862759.0,-34.34840661896882,2.7090809823906064,0.500319200748809,1.07,0.17,-0.16,14.626
862759.0,-34.34840661896882,2.7090809823906064,0.500319200748809,1.07,0.17,-0.16,14.626
863009.0,-33.17624711965167,2.70703982304583,0.49690266542077455,0.92,0.2,-0.15,14.659
863009.0,-33.17624711965167,2.70703982304583,0.49690266542077455,0.92,0.2,-0.15,14.659
863260.0,-32.089977249147424,2.5386752331181928,0.5393241165820775,0.73,0.22,-0.15,14.69
863260.0,-32.089977249147424,2.5386752331181928,0.5393241165820775,0.73,0.22,-0.15,14.69
863510.0,-31.474911884198608,2.298691627431329,0.577016942403616,0.53,0.23,-0.14,14.72
863510.0,-31.474911884198608,2.298691627431329,0.577016942403616,0.53,0.23,-0.14,14.72
863760.0,-31.169301899975558,2.0589263743544937,0.5980897301795449,0.34,0.23,-0.14,14.75
863760.0,-31.169301899975558,2.0589263743544937,0.5980897301795449,0.34,0.23,-0.14,14.75
864010.0,-31.06833804366443,1.8048292499648562,0.6036078826986805,0.17,0.22,-0.14,14.781
864010.0,-31.06833804366443,1.8048292499648562,0.6036078826986805,0.17,0.22,-0.14,14.781
864259.0,-31.111426292043454,1.5676475159415784,0.6017455355719413,0.02,0.2,-0.14,14.813
864259.0,-31.111426292043454,1.5676475159415784,0.6017455355719413,0.02,0.2,-0.14,14.813
864509.0,-31.268076680657696,1.3485751747289432,0.5917162565494238,-0.08,0.18,-0.14,14.846
864509.0,-31.268076680657696,1.3485751747289432,0.5917162565494238,-0.08,0.18,-0.14,14.846
864759.0,-31.47277745008298,1.1161651816145657,0.5893013577910012,-0.18,0.15,-0.14,14.88
864759.0,-31.47277745008298,1.1161651816145657,0.5893013577910012,-0.18,0.15,-0.14,14.88
865009.0,-31.80301368135851,0.9289564199319803,0.5955677361893705,-0.24,0.12,-0.14,14.915000000000001
865009.0,-31.80301368135851,0.9289564199319803,0.5955677361893705,-0.24,0.12,-0.14,14.915000000000001
865260.0,-32.08349881471967,0.8626410994241216,0.6009623049732112,-0.28,0.08,-0.14,14.951
865260.0,-32.08349881471967,0.8626410994241216,0.6009623049732112,-0.28,0.08,-0.14,14.951
865510.0,-32.324785492434124,0.844087317430605,0.6002778986740348,-0.3,0.05,-0.14,14.987
865510.0,-32.324785492434124,0.844087317430605,0.6002778986740348,-0.3,0.05,-0.14,14.987
865760.0,-32.59866924796247,0.7209948755082518,0.5973612478158807,-0.31,0.03,-0.14,15.024000000000001
865760.0,-32.59866924796247,0.7209948755082518,0.5973612478158807,-0.31,0.03,-0.14,15.024000000000001
866010.0,-32.77878816656487,0.6396388914786432,0.6002778986740348,-0.3,0.0,-0.14,15.06
866010.0,-32.77878816656487,0.6396388914786432,0.6002778986740348,-0.3,0.0,-0.14,15.06
866260.0,-32.90736989278495,0.6795622009510139,0.6037490755154293,-0.27,-0.01,-0.14,15.096
866260.0,-32.90736989278495,0.6795622009510139,0.6037490755154293,-0.27,-0.01,-0.14,15.096
866509.0,-32.90634536440945,0.757464136973006,0.6050811758469934,-0.24,-0.02,-0.13,15.133000000000001
866509.0,-32.90634536440945,0.757464136973006,0.6050811758469934,-0.24,-0.02,-0.13,15.133000000000001
866759.0,-33.03145393943657,0.7476712465287944,0.5958187990022215,-0.23,-0.03,-0.13,15.169
866759.0,-33.03145393943657,0.7476712465287944,0.5958187990022215,-0.23,-0.03,-0.13,15.169
867009.0,-33.230803255647146,0.8054883176052763,0.5881694140186303,-0.21,-0.04,-0.13,15.204
867009.0,-33.230803255647146,0.8054883176052763,0.5881694140186303,-0.21,-0.04,-0.13,15.204
867259.0,-33.32557554547566,0.8740214752418323,0.5873132924948515,-0.19,-0.04,-0.13,15.24
867259.0,-33.32557554547566,0.8740214752418323,0.5873132924948515,-0.19,-0.04,-0.13,15.24
867510.0,-33.33158952703985,0.9225660309114929,0.5932923760612572,-0.16,-0.04,-0.13,15.275
867510.0,-33.33158952703985,0.9225660309114929,0.5932923760612572,-0.16,-0.04,-0.13,15.275
867760.0,-34.45528541910118,1.0603121634504327,0.5784239080117857,-0.6,-0.06,-0.13,15.31
867760.0,-34.45528541910118,1.0603121634504327,0.5784239080117857,-0.6,-0.06,-0.13,15.31
868010.0,-40.178898566207245,1.4256448948892515,0.48776456600238505,-0.89,-0.07,-0.09,15.34
868010.0,-40.178898566207245,1.4256448948892515,0.48776456600238505,-0.89,-0.07,-0.09,15.34
868260.0,-43.50861578658846,1.516026973907032,0.5172155946515395,-0.8,-0.05,-0.07,15.361
868260.0,-43.50861578658846,1.516026973907032,0.5172155946515395,-0.8,-0.05,-0.07,15.361
868509.0,-43.36322837991557,1.3253383375640309,0.6576647745545118,-0.59,-0.04,-0.1,15.384
868509.0,-43.36322837991557,1.3253383375640309,0.6576647745545118,-0.59,-0.04,-0.1,15.384
868759.0,-42.77654245096815,1.1541694213735743,0.7316324682537235,-0.44,-0.03,-0.13,15.416
868759.0,-42.77654245096815,1.1541694213735743,0.7316324682537235,-0.44,-0.03,-0.13,15.416
869009.0,-43.194116311160634,1.2263088121701913,0.701437696036978,-0.35000000000000003,-0.02,-0.14,15.453000000000001
869009.0,-43.194116311160634,1.2263088121701913,0.701437696036978,-0.35000000000000003,-0.02,-0.14,15.453000000000001
869259.0,-43.882961379523934,1.4189677446453293,0.627713327826948,-0.22,-0.01,-0.15,15.491
869259.0,-43.882961379523934,1.4189677446453293,0.627713327826948,-0.22,-0.01,-0.15,15.491
869510.0,-43.95122229008904,1.5677713131202848,0.579955631294014,-0.08,0.0,-0.15,15.530000000000001
869510.0,-43.95122229008904,1.5677713131202848,0.579955631294014,-0.08,0.0,-0.15,15.530000000000001
869760.0,-43.64684515501118,1.6510491416276059,0.5669383045921745,0.01,0.0,-0.15,15.57
869760.0,-43.64684515501118,1.6510491416276059,0.5669383045921745,0.01,0.0,-0.15,15.57
870010.0,-43.45303512221748,1.6946365274245712,0.570764064301028,0.07,0.01,-0.15,15.610000000000001
870010.0,-43.45303512221748,1.6946365274245712,0.570764064301028,0.07,0.01,-0.15,15.610000000000001
870260.0,-43.40473202440715,1.6984949439753936,0.5876339912207248,0.12,0.02,-0.15,15.651
870260.0,-43.40473202440715,1.6984949439753936,0.5876339912207248,0.12,0.02,-0.15,15.651
870509.0,-43.24106361642072,1.7306310907420095,0.617813235429279,0.15,0.04,-0.15,15.69
870509.0,-43.24106361642072,1.7306310907420095,0.617813235429279,0.15,0.04,-0.15,15.69
870759.0,-43.05252307457169,1.7011729117385677,0.638171094498178,0.16,0.04,-0.14,15.728
870759.0,-43.05252307457169,1.7011729117385677,0.638171094498178,0.16,0.04,-0.14,15.728
871009.0,-42.87290617487328,1.7306911750623644,0.6379195514376511,0.15,0.05,-0.14,15.766
871009.0,-42.87290617487328,1.7306911750623644,0.6379195514376511,0.15,0.05,-0.14,15.766
871259.0,-42.73545544801594,1.7714929108950224,0.6280056919399363,0.14,0.06,-0.14,15.803
871259.0,-42.73545544801594,1.7714929108950224,0.6280056919399363,0.14,0.06,-0.14,15.803
871510.0,-42.60836270303493,1.7636473714162049,0.6115228446471088,0.12,0.07,-0.13,15.839
871510.0,-42.60836270303493,1.7636473714162049,0.6115228446471088,0.12,0.07,-0.13,15.839
871760.0,-42.49701695918538,1.762123172014234,0.5966968518365383,0.09,0.07,-0.13,15.874
871760.0,-42.49701695918538,1.762123172014234,0.5966968518365383,0.09,0.07,-0.13,15.874
872010.0,-42.45424289950817,1.842628370605353,0.5947474731587343,0.06,0.07,-0.13,15.909
872010.0,-42.45424289950817,1.842628370605353,0.5947474731587343,0.06,0.07,-0.13,15.909
872260.0,-42.40203976368177,1.8874627995343745,0.599251395946976,0.04,0.08,-0.13,15.944
872260.0,-42.40203976368177,1.8874627995343745,0.599251395946976,0.04,0.08,-0.13,15.944
872510.0,-42.33439357014196,1.849043412339876,0.6001417751383106,0.0,0.08,-0.13,15.979000000000001
872510.0,-42.33439357014196,1.849043412339876,0.6001417751383106,0.0,0.08,-0.13,15.979000000000001
872759.0,-42.3213342484489,1.860045139545474,0.6008010484757755,-0.01,0.08,-0.13,16.013
872759.0,-42.3213342484489,1.860045139545474,0.6008010484757755,-0.01,0.08,-0.13,16.013
873009.0,-42.31475677627817,1.8581717467221865,0.6010007781481455,-0.02,0.07,-0.13,16.047
873009.0,-42.31475677627817,1.8581717467221865,0.6010007781481455,-0.02,0.07,-0.13,16.047
873259.0,-42.24315590320893,1.8218347134508954,0.6029678192682563,-0.05,0.08,-0.13,16.082
873259.0,-42.24315590320893,1.8218347134508954,0.6029678192682563,-0.05,0.08,-0.13,16.082
873509.0,-42.21728314663292,1.7783912952350294,0.6031327043036886,-0.07,0.07,-0.14,16.117
873509.0,-42.21728314663292,1.7783912952350294,0.6031327043036886,-0.07,0.07,-0.14,16.117
873760.0,-42.2453039977029,1.7744950992003603,0.5997153685628608,-0.09,0.07,-0.13,16.153
873760.0,-42.2453039977029,1.7744950992003603,0.5997153685628608,-0.09,0.07,-0.13,16.153
874010.0,-42.271245056170606,1.731833097314226,0.5970616799877522,-0.1,0.07,-0.13,16.187
874010.0,-42.271245056170606,1.731833097314226,0.5970616799877522,-0.1,0.07,-0.13,16.187
874260.0,-42.27195539584429,1.7279678505742333,0.5965184665053246,-0.11,0.07,-0.13,16.22
874260.0,-42.27195539584429,1.7279678505742333,0.5965184665053246,-0.11,0.07,-0.13,16.22
874510.0,-42.25476722479795,1.694544319870776,0.598892490850433,-0.11,0.06,-0.14,16.255
874510.0,-42.25476722479795,1.694544319870776,0.598892490850433,-0.11,0.06,-0.14,16.255
874759.0,-42.27591349046831,1.682484873839178,0.6020578566439108,-0.12,0.06,-0.14,16.289
874759.0,-42.27591349046831,1.682484873839178,0.6020578566439108,-0.12,0.06,-0.14,16.289
875009.0,-42.31986917287193,1.6955687415245722,0.6029257175553255,-0.13,0.05,-0.14,16.324
875009.0,-42.31986917287193,1.6955687415245722,0.6029257175553255,-0.13,0.05,-0.14,16.324
875259.0,-42.426546482423774,1.7321007553523258,0.6004418765749681,-0.14,0.05,-0.13,16.359
875259.0,-42.426546482423774,1.7321007553523258,0.6004418765749681,-0.14,0.05,-0.13,16.359
875509.0,-42.44601935174748,1.7575250673206404,0.6044315608239017,-0.13,0.04,-0.14,16.393
875509.0,-42.44601935174748,1.7575250673206404,0.6044315608239017,-0.13,0.04,-0.14,16.393
875760.0,-42.39473829145903,1.7758628445816553,0.609935252551904,-0.11,0.04,-0.13,16.428
875760.0,-42.39473829145903,1.7758628445816553,0.609935252551904,-0.11,0.04,-0.13,16.428
876010.0,-37.59020222925905,1.485016420971293,0.7683454287336297,1.1300000000000001,0.11,-0.17,16.464
876010.0,-37.59020222925905,1.485016420971293,0.7683454287336297,1.1300000000000001,0.11,-0.17,16.464
876260.0,-22.385818646217146,0.7971030330994692,0.8969945497109056,1.55,0.13,-0.25,16.517
876260.0,-22.385818646217146,0.7971030330994692,0.8969945497109056,1.55,0.13,-0.25,16.517
876510.0,-15.663230568841483,0.8572248127731543,0.6463476313474766,1.28,0.11,-0.24,16.578
876510.0,-15.663230568841483,0.8572248127731543,0.6463476313474766,1.28,0.11,-0.24,16.578
876759.0,-15.970664213572928,1.3185426195049856,0.39789885995802815,0.9500000000000001,0.09,-0.17,16.629
876759.0,-15.970664213572928,1.3185426195049856,0.39789885995802815,0.9500000000000001,0.09,-0.17,16.629
877009.0,-14.870621266607353,1.4676707286872226,0.3847543476633237,0.68,0.09,-0.13,16.666
877009.0,-14.870621266607353,1.4676707286872226,0.3847543476633237,0.68,0.09,-0.13,16.666
877259.0,-12.673047174743479,1.357800092254986,0.516263690396822,0.38,0.09,-0.11,16.696
877259.0,-12.673047174743479,1.357800092254986,0.516263690396822,0.38,0.09,-0.11,16.696
877509.0,-11.750185311263559,1.118364289083898,0.620258229708732,0.05,0.08,-0.1,16.722
877509.0,-11.750185311263559,1.118364289083898,0.620258229708732,0.05,0.08,-0.1,16.722
877760.0,-12.082100915301268,1.0119437519561643,0.6589543996471747,-0.21,0.07,-0.1,16.748
877760.0,-12.082100915301268,1.0119437519561643,0.6589543996471747,-0.21,0.07,-0.1,16.748
878010.0,-12.576741507446298,1.0132931412040649,0.6518211208327427,-0.42,0.06,-0.1,16.775
878010.0,-12.576741507446298,1.0132931412040649,0.6518211208327427,-0.42,0.06,-0.1,16.775
878260.0,-13.140462632856838,0.9023825017489879,0.6193780958011523,-0.58,0.05,-0.11,16.803
878260.0,-13.140462632856838,0.9023825017489879,0.6193780958011523,-0.58,0.05,-0.11,16.803
878510.0,-13.871909298620796,0.8045008750225334,0.5945105509718995,-0.6900000000000001,0.04,-0.11,16.833000000000002
878510.0,-13.871909298620796,0.8045008750225334,0.5945105509718995,-0.6900000000000001,0.04,-0.11,16.833000000000002
878760.0,-14.7161599536221,0.6917219120251936,0.5831354045177722,-0.76,0.04,-0.12,16.864
878760.0,-14.7161599536221,0.6917219120251936,0.5831354045177722,-0.76,0.04,-0.12,16.864
879009.0,-15.467528573647693,0.5958565784860681,0.5918412810277468,-0.77,0.03,-0.12,16.896
879009.0,-15.467528573647693,0.5958565784860681,0.5918412810277468,-0.77,0.03,-0.12,16.896
879259.0,-16.056948285810407,0.5611614052973718,0.6089838819057153,-0.76,0.02,-0.12,16.929000000000002
879259.0,-16.056948285810407,0.5611614052973718,0.6089838819057153,-0.76,0.02,-0.12,16.929000000000002
879509.0,-16.65203022479506,0.5360179314978211,0.6150846815775647,-0.72,0.01,-0.13,16.963
879509.0,-16.65203022479506,0.5360179314978211,0.6150846815775647,-0.72,0.01,-0.13,16.963
879759.0,-17.23665855925501,0.5351288863278088,0.6100701487880117,-0.67,0.0,-0.13,16.996
879759.0,-17.23665855925501,0.5351288863278088,0.6100701487880117,-0.67,0.0,-0.13,16.996
880010.0,-17.62783715339998,0.5726975414446704,0.5975511057304659,-0.61,0.0,-0.13,17.031
880010.0,-17.62783715339998,0.5726975414446704,0.5975511057304659,-0.61,0.0,-0.13,17.031
880260.0,-17.87092870860261,0.6894372137478243,0.5858834350807917,-0.54,0.0,-0.13,17.066
880260.0,-17.87092870860261,0.6894372137478243,0.5858834350807917,-0.54,0.0,-0.13,17.066
880510.0,-18.104936112209124,0.7794223413809507,0.5830195581061465,-0.47000000000000003,0.0,-0.13,17.101
880510.0,-18.104936112209124,0.7794223413809507,0.5830195581061465,-0.47000000000000003,0.0,-0.13,17.101
880760.0,-18.211236053809326,0.7951941019481564,0.5897070603555294,-0.41000000000000003,0.01,-0.13,17.135
880760.0,-18.211236053809326,0.7951941019481564,0.5897070603555294,-0.41000000000000003,0.01,-0.13,17.135
881009.0,-18.32632474132404,0.841952456428153,0.5947837051778472,-0.35000000000000003,0.01,-0.13,17.17
881009.0,-18.32632474132404,0.841952456428153,0.5947837051778472,-0.35000000000000003,0.01,-0.13,17.17
881259.0,-18.244649339229028,0.9803189088819473,0.6037332807029737,-0.29,0.02,-0.13,17.204
881259.0,-18.244649339229028,0.9803189088819473,0.6037332807029737,-0.29,0.02,-0.13,17.204
881509.0,-18.349426148644316,1.1631371395886838,0.5956989505266289,-0.27,0.03,-0.13,17.239
881509.0,-18.349426148644316,1.1631371395886838,0.5956989505266289,-0.27,0.03,-0.13,17.239
881759.0,-18.47888726172003,1.1993041651826648,0.5847848418414774,-0.21,0.05,-0.13,17.273
881759.0,-18.47888726172003,1.1993041651826648,0.5847848418414774,-0.21,0.05,-0.13,17.273
882010.0,-17.885818520993237,1.1409346491962054,0.5912091150035504,-0.17,0.06,-0.13,17.308
882010.0,-17.885818520993237,1.1409346491962054,0.5912091150035504,-0.17,0.06,-0.13,17.308
882260.0,-17.73539214226017,1.1041065893566138,0.5869336833873869,-0.17,0.08,-0.13,17.344
882260.0,-17.73539214226017,1.1041065893566138,0.5869336833873869,-0.17,0.08,-0.13,17.344
882510.0,-18.04271991905948,1.200685037333771,0.5811325049045188,-0.17,0.08,-0.13,17.379
882510.0,-18.04271991905948,1.200685037333771,0.5811325049045188,-0.17,0.08,-0.13,17.379
882760.0,-18.155069700717018,1.3374193413801967,0.5833966058926723,-0.16,0.09,-0.14,17.414
882760.0,-18.155069700717018,1.3374193413801967,0.5833966058926723,-0.16,0.09,-0.14,17.414
883009.0,-18.005333171090122,1.3748009667076766,0.5879059714879088,-0.15,0.1,-0.13,17.45
883009.0,-18.005333171090122,1.3748009667076766,0.5879059714879088,-0.15,0.1,-0.13,17.45
883259.0,-17.912688485188067,1.304978931030398,0.5924347604335974,-0.14,0.11,-0.13,17.485
883259.0,-17.912688485188067,1.304978931030398,0.5924347604335974,-0.14,0.11,-0.13,17.485
883509.0,-17.906206635665725,1.2377518336291955,0.5960281336281118,-0.14,0.12,-0.13,17.521
883509.0,-17.906206635665725,1.2377518336291955,0.5960281336281118,-0.14,0.12,-0.13,17.521
883759.0,-15.404462021946381,1.1704350899951366,0.6495528043372109,0.44,0.16,-0.14,17.557
883759.0,-15.404462021946381,1.1704350899951366,0.6495528043372109,0.44,0.16,-0.14,17.557
884010.0,-4.413466324194901,0.6646526984056694,0.7343926117303491,0.76,0.18,-0.15,17.597
884010.0,-4.413466324194901,0.6646526984056694,0.7343926117303491,0.76,0.18,-0.15,17.597
884260.0,1.1509450384767994,0.5120594421584146,0.6125252816295139,0.66,0.17,-0.15,17.637
884260.0,1.1509450384767994,0.5120594421584146,0.6125252816295139,0.66,0.17,-0.15,17.637
884510.0,1.476800023564885,0.6413350729094807,0.48059745640722024,0.5,0.17,-0.13,17.674
884510.0,1.476800023564885,0.6413350729094807,0.48059745640722024,0.5,0.17,-0.13,17.674
884760.0,2.1415855371333996,0.7053963242695294,0.4575589615325028,0.35000000000000003,0.17,-0.13,17.709
884760.0,2.1415855371333996,0.7053963242695294,0.4575589615325028,0.35000000000000003,0.17,-0.13,17.709
885010.0,3.4587254065375936,0.6929262664749373,0.5208004301095913,0.18,0.16,-0.12,17.742
885010.0,3.4587254065375936,0.6929262664749373,0.5208004301095913,0.18,0.16,-0.12,17.742
885259.0,4.113130953558393,0.6507191658596964,0.5878336141713889,0.0,0.16,-0.12,17.774
885259.0,4.113130953558393,0.6507191658596964,0.5878336141713889,0.0,0.16,-0.12,17.774
885509.0,4.081922111693312,0.6065215453490728,0.6184677596508367,-0.16,0.16,-0.12,17.807
885509.0,4.081922111693312,0.6065215453490728,0.6184677596508367,-0.16,0.16,-0.12,17.807
885759.0,3.719608323867639,0.5460209036198634,0.621256824709729,-0.29,0.16,-0.13,17.841
885759.0,3.719608323867639,0.5460209036198634,0.621256824709729,-0.29,0.16,-0.13,17.841
886009.0,3.367081770235771,0.40346637126608764,0.6113551848473262,-0.38,0.15,-0.13,17.876
886009.0,3.367081770235771,0.40346637126608764,0.6113551848473262,-0.38,0.15,-0.13,17.876
886260.0,3.001165484509739,0.2969150466879185,0.5951746801469775,-0.45,0.15,-0.13,17.912
886260.0,3.001165484509739,0.2969150466879185,0.5951746801469775,-0.45,0.15,-0.13,17.912
886510.0,2.515247684265049,0.24486572351996858,0.5829688652959003,-0.49,0.14,-0.13,17.948
886510.0,2.515247684265049,0.24486572351996858,0.5829688652959003,-0.49,0.14,-0.13,17.948
886760.0,2.004939918824478,0.22852308186811146,0.5809885373234197,-0.51,0.13,-0.12,17.984
886760.0,2.004939918824478,0.22852308186811146,0.5809885373234197,-0.51,0.13,-0.12,17.984
887010.0,1.5430625701892349,0.19562699651505244,0.5848771561169783,-0.5,0.12,-0.12,18.02
887010.0,1.5430625701892349,0.19562699651505244,0.5848771561169783,-0.5,0.12,-0.12,18.02
887259.0,1.2027012237993941,0.18951954007680488,0.5922360446174324,-0.48,0.12,-0.12,18.056
887259.0,1.2027012237993941,0.18951954007680488,0.5922360446174324,-0.48,0.12,-0.12,18.056
887509.0,0.9748966991763092,0.2378074967451273,0.5946008375349907,-0.45,0.11,-0.12,18.092
887509.0,0.9748966991763092,0.2378074967451273,0.5946008375349907,-0.45,0.11,-0.12,18.092
887759.0,0.7122693622044134,0.20973986154737806,0.5932921626178457,-0.42,0.11,-0.12,18.127
887759.0,0.7122693622044134,0.20973986154737806,0.5932921626178457,-0.42,0.11,-0.12,18.127
888009.0,0.49386787363432033,0.13616499710693458,0.5918702559708665,-0.38,0.11,-0.12,18.163
888009.0,0.49386787363432033,0.13616499710693458,0.5918702559708665,-0.38,0.11,-0.12,18.163
888260.0,0.365619572703533,0.22576117748334046,0.5889742557627811,-0.34,0.11,-0.12,18.198
888260.0,0.365619572703533,0.22576117748334046,0.5889742557627811,-0.34,0.11,-0.12,18.198
888510.0,0.28693480628920764,0.3317906596006648,0.5862954875868138,-0.31,0.11,-0.12,18.234
888510.0,0.28693480628920764,0.3317906596006648,0.5862954875868138,-0.31,0.11,-0.12,18.234
888760.0,0.2383232560687426,0.33223048643061653,0.58202854034626,-0.27,0.11,-0.12,18.269000000000002
888760.0,0.2383232560687426,0.33223048643061653,0.58202854034626,-0.27,0.11,-0.12,18.269000000000002
889010.0,0.18982154916395316,0.32009833623695494,0.5817300930960421,-0.25,0.12,-0.12,18.304000000000002
889010.0,0.18982154916395316,0.32009833623695494,0.5817300930960421,-0.25,0.12,-0.12,18.304000000000002
889259.0,0.10357911840204918,0.38137804641836887,0.5889691864817564,-0.22,0.12,-0.12,18.339
889259.0,0.10357911840204918,0.38137804641836887,0.5889691864817564,-0.22,0.12,-0.12,18.339
889509.0,0.15488425110526524,0.48018497701437496,0.5971458834136137,-0.2,0.13,-0.12,18.373
889509.0,0.15488425110526524,0.48018497701437496,0.5971458834136137,-0.2,0.13,-0.12,18.373
889759.0,0.16408817113569543,0.5012111807657303,0.5980226022266084,-0.18,0.13,-0.12,18.408
889759.0,0.16408817113569543,0.5012111807657303,0.5980226022266084,-0.18,0.13,-0.12,18.408
890009.0,0.1873274095389878,0.513964157802349,0.5941794468797126,-0.16,0.14,-0.12,18.443
890009.0,0.1873274095389878,0.513964157802349,0.5941794468797126,-0.16,0.14,-0.12,18.443
890260.0,0.26735438816650003,0.6075951123483813,0.5916119360820224,-0.15,0.15,-0.12,18.477
890260.0,0.26735438816650003,0.6075951123483813,0.5916119360820224,-0.15,0.15,-0.12,18.477
890510.0,0.3730213900101376,0.6465413846043229,0.5889755897841034,-0.14,0.15,-0.12,18.512
890510.0,0.3730213900101376,0.6465413846043229,0.5889755897841034,-0.14,0.15,-0.12,18.512
890760.0,0.41427114356366607,0.6133110735491828,0.5862650185398133,-0.14,0.16,-0.12,18.547
890760.0,0.41427114356366607,0.6133110735491828,0.5862650185398133,-0.14,0.16,-0.12,18.547
891010.0,0.411178668695237,0.6088662745859441,0.5836137312030847,-0.14,0.16,-0.12,18.582
891010.0,0.411178668695237,0.6088662745859441,0.5836137312030847,-0.14,0.16,-0.12,18.582
891260.0,0.4329599018345696,0.6915117769865099,0.5835808075568512,-0.14,0.17,-0.12,18.616
891260.0,0.4329599018345696,0.6915117769865099,0.5835808075568512,-0.14,0.17,-0.12,18.616
891509.0,0.5179295095023646,0.6954146964886433,0.5857231390787079,-0.14,0.18,-0.12,18.651
891509.0,0.5179295095023646,0.6954146964886433,0.5857231390787079,-0.14,0.18,-0.12,18.651
891759.0,0.5483410335035521,0.6288655487234175,0.5876423688746286,-0.14,0.18,-0.12,18.686
891759.0,0.5483410335035521,0.6288655487234175,0.5876423688746286,-0.14,0.18,-0.12,18.686
892009.0,0.556991628169932,0.6295696451773105,0.5920237217837803,-0.14,0.18,-0.12,18.721
892009.0,0.556991628169932,0.6295696451773105,0.5920237217837803,-0.14,0.18,-0.12,18.721
892259.0,0.5544046406609368,0.6889655038082704,0.5994159074564381,-0.14,0.18,-0.12,18.756
892259.0,0.5544046406609368,0.6889655038082704,0.5994159074564381,-0.14,0.18,-0.12,18.756
892510.0,0.5549857937097696,0.6492452323811487,0.5976734621661444,-0.15,0.19,-0.12,18.79
892510.0,0.5549857937097696,0.6492452323811487,0.5976734621661444,-0.15,0.19,-0.12,18.79
892760.0,0.5683543949061887,0.5440122410344979,0.5933646266560713,-0.15,0.19,-0.13,18.824
892760.0,0.5683543949061887,0.5440122410344979,0.5933646266560713,-0.15,0.19,-0.13,18.824
893010.0,0.5318841195852295,0.5880792875380979,0.5888396263309378,-0.15,0.18,-0.12,18.859
893010.0,0.5318841195852295,0.5880792875380979,0.5888396263309378,-0.15,0.18,-0.12,18.859
893260.0,0.4706444300434836,0.6837812301456719,0.587520599408332,-0.15,0.19,-0.12,18.894000000000002
893260.0,0.4706444300434836,0.6837812301456719,0.587520599408332,-0.15,0.19,-0.12,18.894000000000002
893509.0,0.46814847614952,0.6342897861414654,0.5961663382370987,-0.15,0.19,-0.13,18.929000000000002
893509.0,0.46814847614952,0.6342897861414654,0.5961663382370987,-0.15,0.19,-0.13,18.929000000000002
893759.0,0.4690969119487997,0.6006968880909328,0.6042566973089788,-0.15,0.19,-0.13,18.964
893759.0,0.4690969119487997,0.6006968880909328,0.6042566973089788,-0.15,0.19,-0.13,18.964
894009.0,0.48776243156826943,0.5944189303874862,0.6034306713062304,-0.15,0.19,-0.12,18.999
894009.0,0.48776243156826943,0.5944189303874862,0.6034306713062304,-0.15,0.19,-0.12,18.999
894259.0,0.5406948501711344,0.6031732585518855,0.5997234260516473,-0.15,0.19,-0.12,19.034
894259.0,0.5406948501711344,0.6031732585518855,0.5997234260516473,-0.15,0.19,-0.12,19.034
894510.0,0.5572843658088904,0.5876302559610224,0.5929372595852694,-0.15,0.19,-0.13,19.069
894510.0,0.5572843658088904,0.5876302559610224,0.5929372595852694,-0.15,0.19,-0.13,19.069
894760.0,0.5377178481883609,0.6343533922781112,0.587072314883197,-0.15,0.19,-0.12,19.103
894760.0,0.5377178481883609,0.6343533922781112,0.587072314883197,-0.15,0.19,-0.12,19.103
895010.0,0.5337506822193471,0.6528888181382332,0.5887104930669422,-0.15,0.19,-0.13,19.138
895010.0,0.5337506822193471,0.6528888181382332,0.5887104930669422,-0.15,0.19,-0.13,19.138
895260.0,0.47411523335890793,0.6230745621634516,0.5982463976436321,-0.15,0.19,-0.13,19.173000000000002
895260.0,0.47411523335890793,0.6230745621634516,0.5982463976436321,-0.15,0.19,-0.13,19.173000000000002
895509.0,0.4995526187361808,0.6504666089429646,0.6055494173311096,-0.15,0.19,-0.13,19.208000000000002
895509.0,0.4995526187361808,0.6504666089429646,0.6055494173311096,-0.15,0.19,-0.13,19.208000000000002
895759.0,0.6136493813565099,0.6475054017726467,0.6055100903825291,-0.14,0.19,-0.13,19.243000000000002
895759.0,0.6136493813565099,0.6475054017726467,0.6055100903825291,-0.14,0.19,-0.13,19.243000000000002
896009.0,0.6216344594656367,0.6463152413097719,0.6007457666321807,-0.15,0.2,-0.13,19.279
896009.0,0.6216344594656367,0.6463152413097719,0.6007457666321807,-0.15,0.2,-0.13,19.279
896259.0,0.5227070133833769,0.5943959852207432,0.5983309745954639,-0.15,0.2,-0.13,19.315
896259.0,0.5227070133833769,0.5943959852207432,0.5983309745954639,-0.15,0.2,-0.13,19.315
896510.0,0.44105383608359344,0.6323809083510055,0.5949002986414134,-0.16,0.19,-0.13,19.35
896510.0,0.44105383608359344,0.6323809083510055,0.5949002986414134,-0.16,0.19,-0.13,19.35
896760.0,0.4095479877113229,0.6721494179891403,0.5948902668010699,-0.15,0.19,-0.13,19.385
896760.0,0.4095479877113229,0.6721494179891403,0.5948902668010699,-0.15,0.19,-0.13,19.385
897010.0,0.4782000066476929,0.6532062084912272,0.5989566305956077,-0.14,0.19,-0.12,19.42
897010.0,0.4782000066476929,0.6532062084912272,0.5989566305956077,-0.14,0.19,-0.12,19.42
897260.0,0.5249046267488285,0.6313488027343931,0.6005625788242068,-0.15,0.2,-0.12,19.454
897260.0,0.5249046267488285,0.6313488027343931,0.6005625788242068,-0.15,0.2,-0.12,19.454
897510.0,0.5293760527776596,0.6298918380070647,0.6002841952546759,-0.14,0.2,-0.12,19.488
897510.0,0.5293760527776596,0.6298918380070647,0.6002841952546759,-0.14,0.2,-0.12,19.488
897759.0,0.5556080346153284,0.6766898396007591,0.5995330878893861,-0.14,0.19,-0.12,19.522000000000002
897759.0,0.5556080346153284,0.6766898396007591,0.5995330878893861,-0.14,0.19,-0.12,19.522000000000002
898009.0,0.5818260892703925,0.7276029768085334,0.5978595848210272,-0.14,0.19,-0.13,19.557000000000002
898009.0,0.5818260892703925,0.7276029768085334,0.5978595848210272,-0.14,0.19,-0.13,19.557000000000002
898259.0,0.576069093573718,0.6711643232839246,0.5994071029157111,-0.15,0.2,-0.13,19.593
898259.0,0.576069093573718,0.6711643232839246,0.5994071029157111,-0.15,0.2,-0.13,19.593
898509.0,0.5570169745750551,0.6097551063125449,0.6015932436977912,-0.15,0.2,-0.13,19.628
898509.0,0.5570169745750551,0.6097551063125449,0.6015932436977912,-0.15,0.2,-0.13,19.628
898760.0,0.5005019083091068,0.6674234073311675,0.6027995724990918,-0.15,0.2,-0.13,19.664
898760.0,0.5005019083091068,0.6674234073311675,0.6027995724990918,-0.15,0.2,-0.13,19.664
899010.0,0.4383456393972569,0.6091351599236604,0.5987561005104443,-0.15,0.2,-0.13,19.699
899010.0,0.4383456393972569,0.6091351599236604,0.5987561005104443,-0.15,0.2,-0.13,19.699
899260.0,0.4032116532348138,0.5402357867537155,0.5977665768544387,-0.15,0.2,-0.13,19.733
899260.0,0.4032116532348138,0.5402357867537155,0.5977665768544387,-0.15,0.2,-0.13,19.733
899510.0,0.5123059692987698,0.5627728496938188,0.5973197330723318,-0.14,0.19,-0.13,19.768
899510.0,0.5123059692987698,0.5627728496938188,0.5973197330723318,-0.14,0.19,-0.13,19.768
899759.0,0.5818204863808389,0.6641667944792465,0.6038002485733516,-0.14,0.19,-0.12,19.803
899759.0,0.5818204863808389,0.6641667944792465,0.6038002485733516,-0.14,0.19,-0.12,19.803
900009.0,0.5681233957740247,0.6510615824526962,0.602528499366407,-0.15,0.19,-0.13,19.837
900009.0,0.5681233957740247,0.6510615824526962,0.602528499366407,-0.15,0.19,-0.13,19.837
900259.0,0.5471761660849476,0.6338425688333882,0.5973292846649992,-0.15,0.19,-0.13,19.872
900259.0,0.5471761660849476,0.6338425688333882,0.5973292846649992,-0.15,0.19,-0.13,19.872
900509.0,0.5520167424940768,0.7250256476139113,0.5959065242443738,-0.15,0.19,-0.13,19.908
900509.0,0.5520167424940768,0.7250256476139113,0.5959065242443738,-0.15,0.19,-0.13,19.908
900760.0,0.46906377485915457,0.7024214033600186,0.5962168176039334,-0.15,0.19,-0.13,19.944
900760.0,0.46906377485915457,0.7024214033600186,0.5962168176039334,-0.15,0.19,-0.13,19.944
901010.0,0.45483414294049085,0.6825959788812632,0.6003643432557179,-0.15,0.19,-0.13,19.98
901010.0,0.45483414294049085,0.6825959788812632,0.6003643432557179,-0.15,0.19,-0.13,19.98
901260.0,0.5784587526487234,0.6110674631285393,0.6080917418062353,-0.15,0.2,-0.12,20.015
901260.0,0.5784587526487234,0.6110674631285393,0.6080917418062353,-0.15,0.2,-0.12,20.015
901510.0,0.5726125909668685,0.5890466664401538,0.6094890491000318,-0.15,0.2,-0.13,20.05
901510.0,0.5726125909668685,0.5890466664401538,0.6094890491000318,-0.15,0.2,-0.13,20.05
