time_boot_ms,pitch,roll,yaw,vx,vy,vz,relative_alt
117899.0,-34.30370986104026,4.875390737102395,-8.312875535981718,0.15,0.02,-0.24,9.733
117899.0,-34.30370986104026,4.875390737102395,-8.312875535981718,0.15,0.02,-0.24,9.733
118150.0,-33.54309999506764,4.668268665616343,-8.301766233296691,0.13,0.01,-0.18,9.797
118150.0,-33.54309999506764,4.668268665616343,-8.301766233296691,0.13,0.01,-0.18,9.797
118400.0,-33.27325288133878,4.669781552517501,-8.321326187532316,0.09,0.01,-0.13,9.843
118400.0,-33.27325288133878,4.669781552517501,-8.321326187532316,0.09,0.01,-0.13,9.843
118650.0,-33.31435354466933,4.693744417446844,-8.337778405695584,0.05,0.01,-0.1,9.877
118650.0,-33.31435354466933,4.693744417446844,-8.337778405695584,0.05,0.01,-0.1,9.877
118899.0,-33.28024357995429,4.665997627717314,-8.318265409010504,0.03,0.01,-0.08,9.903
118899.0,-33.28024357995429,4.665997627717314,-8.318265409010504,0.03,0.01,-0.08,9.903
119149.0,-32.82790064179185,4.557881709571535,-8.262006848364402,0.08,0.01,-0.14,9.933
119149.0,-32.82790064179185,4.557881709571535,-8.262006848364402,0.08,0.01,-0.14,9.933
119399.0,-31.96316795701697,4.417767208937893,-8.222224411543662,0.06,0.01,-0.19,9.977
119399.0,-31.96316795701697,4.417767208937893,-8.222224411543662,0.06,0.01,-0.19,9.977
119649.0,-32.12912447837535,4.4772163217000385,-8.304297672157828,-0.02,0.01,-0.2,10.028
119649.0,-32.12912447837535,4.4772163217000385,-8.304297672157828,-0.02,0.01,-0.2,10.028
119899.0,-32.59732370069597,4.659366367806877,-8.359708435573202,-0.04,0.0,-0.19,10.077
119899.0,-32.59732370069597,4.659366367806877,-8.359708435573202,-0.04,0.0,-0.19,10.077
120149.0,-32.51935026113111,4.683697209177755,-8.321580612078899,-0.07,0.0,-0.18,10.124
120149.0,-32.51935026113111,4.683697209177755,-8.321580612078899,-0.07,0.0,-0.18,10.124
120400.0,-32.65803725222822,4.653018560746997,-8.297083284847002,-0.12,0.01,-0.17,10.169
120400.0,-32.65803725222822,4.653018560746997,-8.297083284847002,-0.12,0.01,-0.17,10.169
120650.0,-33.102272755845846,4.664383568639074,-8.294486105415105,-0.13,0.0,-0.15,10.209
120650.0,-33.102272755845846,4.664383568639074,-8.294486105415105,-0.13,0.0,-0.15,10.209
120899.0,-33.08719852834763,4.696808184176418,-8.260763753935459,-0.12,0.0,-0.15,10.247
120899.0,-33.08719852834763,4.696808184176418,-8.260763753935459,-0.12,0.0,-0.15,10.247
121149.0,-32.994335276392135,4.682301716152957,-8.251651427809016,-0.11,0.0,-0.14,10.284
121149.0,-32.994335276392135,4.682301716152957,-8.251651427809016,-0.11,0.0,-0.14,10.284
121399.0,-33.04042539291138,4.689201914761962,-8.276203396554273,-0.11,0.0,-0.14,10.32
121399.0,-33.04042539291138,4.689201914761962,-8.276203396554273,-0.11,0.0,-0.14,10.32
121649.0,-33.062910375659065,4.775400609634816,-8.295702732861013,-0.08,0.0,-0.14,10.355
121649.0,-33.062910375659065,4.775400609634816,-8.295702732861013,-0.08,0.0,-0.14,10.355
121899.0,-32.61449821136397,4.75152482961739,-8.272352023636032,-0.04,0.0,-0.15,10.391
121899.0,-32.61449821136397,4.75152482961739,-8.272352023636032,-0.04,0.0,-0.15,10.391
122149.0,-32.59109798326751,4.7481588270170425,-8.310368856556323,-0.12,0.0,-0.15,10.427
122149.0,-32.59109798326751,4.7481588270170425,-8.310368856556323,-0.12,0.0,-0.15,10.427
122400.0,-33.57011680832962,4.934537187106943,-8.384683876047001,-0.12,0.0,-0.14,10.462
122400.0,-33.57011680832962,4.934537187106943,-8.384683876047001,-0.12,0.0,-0.14,10.462
122650.0,-33.481027235890565,4.943987607597301,-8.300519723773165,-0.04,0.01,-0.14,10.496
122650.0,-33.481027235890565,4.943987607597301,-8.300519723773165,-0.04,0.01,-0.14,10.496
122899.0,-32.53212271487903,4.627191907947886,-8.193549569860656,-0.02,0.01,-0.15,10.531
122899.0,-32.53212271487903,4.627191907947886,-8.193549569860656,-0.02,0.01,-0.15,10.531
123149.0,-32.52456169546783,4.648443187776734,-8.247623323746001,-0.05,0.0,-0.15,10.568
123149.0,-32.52456169546783,4.648443187776734,-8.247623323746001,-0.05,0.0,-0.15,10.568
123399.0,-33.14677143828848,4.945442011003691,-8.34597890156783,-0.11,0.0,-0.14,10.604000000000001
123399.0,-33.14677143828848,4.945442011003691,-8.34597890156783,-0.11,0.0,-0.14,10.604000000000001
123649.0,-33.534452975578404,5.085069006885323,-8.350596963220406,-0.03,0.0,-0.14,10.639
123649.0,-33.534452975578404,5.085069006885323,-8.350596963220406,-0.03,0.0,-0.14,10.639
123899.0,-32.63092481631785,4.783321494637915,-8.22971883661046,-0.01,0.01,-0.15,10.675
123899.0,-32.63092481631785,4.783321494637915,-8.22971883661046,-0.01,0.01,-0.15,10.675
124149.0,-32.465876710119076,4.69962862541681,-8.243415927217272,-0.04,0.01,-0.15,10.711
124149.0,-32.465876710119076,4.69962862541681,-8.243415927217272,-0.04,0.01,-0.15,10.711
124400.0,-32.97716759591331,4.890445754693571,-8.316655191913673,-0.1,0.0,-0.14,10.747
124400.0,-32.97716759591331,4.890445754693571,-8.316655191913673,-0.1,0.0,-0.14,10.747
124650.0,-33.64748236105836,5.048905716551045,-8.357304208985358,-0.06,0.01,-0.14,10.782
124650.0,-33.64748236105836,5.048905716551045,-8.357304208985358,-0.06,0.01,-0.14,10.782
124900.0,-32.949546310909774,4.804746090516952,-8.249330017264858,-0.01,0.02,-0.14,10.816
124900.0,-32.949546310909774,4.804746090516952,-8.249330017264858,-0.01,0.02,-0.14,10.816
125149.0,-32.53584516797669,4.689723997346645,-8.23561328986418,-0.05,0.01,-0.14,10.852
125149.0,-32.53584516797669,4.689723997346645,-8.23561328986418,-0.05,0.01,-0.14,10.852
125399.0,-33.60398771642372,4.92948370089478,-8.368148841840046,-0.16,0.01,-0.13,10.888
125399.0,-33.60398771642372,4.92948370089478,-8.368148841840046,-0.16,0.01,-0.13,10.888
125649.0,-34.65916656582606,5.202236206341837,-8.407599160712394,-0.16,0.0,-0.13,10.921
125649.0,-34.65916656582606,5.202236206341837,-8.407599160712394,-0.16,0.0,-0.13,10.921
125899.0,-34.67163166106134,5.165281894724306,-8.297585303750997,-0.12,0.01,-0.13,10.955
125899.0,-34.67163166106134,5.165281894724306,-8.297585303750997,-0.12,0.01,-0.13,10.955
126149.0,-34.49332274258899,5.038233119086076,-8.21417076473857,-0.08,0.01,-0.14,10.99
126149.0,-34.49332274258899,5.038233119086076,-8.21417076473857,-0.08,0.01,-0.14,10.99
126399.0,-34.33150531586762,4.9331485242713145,-8.2023997874777,-0.05,0.01,-0.14,11.026
126399.0,-34.33150531586762,4.9331485242713145,-8.2023997874777,-0.05,0.01,-0.14,11.026
126650.0,-34.338188655970484,5.058999455483854,-8.25780713579849,-0.05,0.01,-0.14,11.063
126650.0,-34.338188655970484,5.058999455483854,-8.25780713579849,-0.05,0.01,-0.14,11.063
126900.0,-34.54295431219288,5.206212657099254,-8.318501904310516,-0.05,0.01,-0.14,11.099
126900.0,-34.54295431219288,5.206212657099254,-8.318501904310516,-0.05,0.01,-0.14,11.099
127149.0,-34.567358578097334,5.227351665693621,-8.321793201716815,-0.03,0.01,-0.13,11.133000000000001
127149.0,-34.567358578097334,5.227351665693621,-8.321793201716815,-0.03,0.01,-0.13,11.133000000000001
127399.0,-34.42276688846275,5.237445831513253,-8.294153133693067,-0.02,0.01,-0.14,11.168000000000001
127399.0,-34.42276688846275,5.237445831513253,-8.294153133693067,-0.02,0.01,-0.14,11.168000000000001
127649.0,-34.43703515363891,5.20863481293367,-8.289299430514125,-0.02,0.01,-0.14,11.204
127649.0,-34.43703515363891,5.20863481293367,-8.289299430514125,-0.02,0.01,-0.14,11.204
127899.0,-34.49289244067128,5.236410630967173,-8.290664614574483,-0.02,0.01,-0.14,11.239
127899.0,-34.49289244067128,5.236410630967173,-8.290664614574483,-0.02,0.01,-0.14,11.239
128149.0,-34.43418013456584,5.250417214520754,-8.28051324592055,-0.01,0.01,-0.14,11.275
128149.0,-34.43418013456584,5.250417214520754,-8.28051324592055,-0.01,0.01,-0.14,11.275
128399.0,-34.339674222114965,5.311645591561686,-8.278248184437045,-0.01,0.01,-0.14,11.311
128399.0,-34.339674222114965,5.311645591561686,-8.278248184437045,-0.01,0.01,-0.14,11.311
128650.0,-34.324012598348126,5.3485678866674835,-8.291047105168003,-0.01,0.01,-0.14,11.347
128650.0,-34.324012598348126,5.3485678866674835,-8.291047105168003,-0.01,0.01,-0.14,11.347
128900.0,-34.36406141254649,5.370374119366395,-8.301951502177928,-0.02,0.01,-0.13,11.382
128900.0,-34.36406141254649,5.370374119366395,-8.301951502177928,-0.02,0.01,-0.13,11.382
129149.0,-34.36725111088889,5.3185415213024605,-8.298585926464405,-0.02,0.01,-0.14,11.418000000000001
129149.0,-34.36725111088889,5.3185415213024605,-8.298585926464405,-0.02,0.01,-0.14,11.418000000000001
129399.0,-34.297070917167005,5.349853669778738,-8.287768614366398,-0.02,0.01,-0.14,11.454
129399.0,-34.297070917167005,5.349853669778738,-8.287768614366398,-0.02,0.01,-0.14,11.454
129649.0,-34.292303445126336,5.395306444271057,-8.290817440057161,-0.03,0.01,-0.14,11.489
129649.0,-34.292303445126336,5.395306444271057,-8.290817440057161,-0.03,0.01,-0.14,11.489
129899.0,-34.326625145705655,5.447994096641713,-8.297179761269028,-0.03,0.01,-0.13,11.524000000000001
129899.0,-34.326625145705655,5.447994096641713,-8.297179761269028,-0.03,0.01,-0.13,11.524000000000001
130149.0,-34.3146108429556,5.459334345098049,-8.295280114906118,-0.03,0.01,-0.13,11.558
130149.0,-34.3146108429556,5.459334345098049,-8.295280114906118,-0.03,0.01,-0.13,11.558
130399.0,-34.23624125241887,5.386085262004717,-8.288394430449099,-0.02,0.01,-0.13,11.591000000000001
130399.0,-34.23624125241887,5.386085262004717,-8.288394430449099,-0.02,0.01,-0.13,11.591000000000001
130650.0,-34.169957681618484,5.38291861555077,-8.288434557810474,-0.03,0.01,-0.14,11.626
130650.0,-34.169957681618484,5.38291861555077,-8.288434557810474,-0.03,0.01,-0.14,11.626
130900.0,-34.234472233423844,5.407581147983216,-8.302366436170006,-0.03,0.01,-0.13,11.661
130900.0,-34.234472233423844,5.407581147983216,-8.302366436170006,-0.03,0.01,-0.13,11.661
131150.0,-34.230292157651796,5.393202319119871,-8.297280506559286,-0.03,0.02,-0.14,11.696
131150.0,-34.230292157651796,5.393202319119871,-8.297280506559286,-0.03,0.02,-0.14,11.696
131399.0,-34.23569483728527,5.329714003237309,-8.292045166560472,-0.04,0.01,-0.14,11.732000000000001
131399.0,-34.23569483728527,5.329714003237309,-8.292045166560472,-0.04,0.01,-0.14,11.732000000000001
131649.0,-34.26271506564184,5.354685601729699,-8.288669345563193,-0.04,0.01,-0.14,11.767
131649.0,-34.26271506564184,5.354685601729699,-8.288669345563193,-0.04,0.01,-0.14,11.767
131899.0,-34.31278718244721,5.414491164989154,-8.291884657114975,-0.04,0.0,-0.14,11.803
131899.0,-34.31278718244721,5.414491164989154,-8.291884657114975,-0.04,0.0,-0.14,11.803
132149.0,-34.26286532980358,5.423531774129311,-8.28322653856834,-0.03,0.0,-0.13,11.838000000000001
132149.0,-34.26286532980358,5.423531774129311,-8.28322653856834,-0.03,0.0,-0.13,11.838000000000001
132399.0,-34.22903198774993,5.453954290466195,-8.283412661223222,-0.04,0.01,-0.13,11.874
132399.0,-34.22903198774993,5.453954290466195,-8.283412661223222,-0.04,0.01,-0.13,11.874
132649.0,-34.283997935095606,5.395132701334045,-8.291011246674861,-0.04,0.01,-0.13,11.909
132649.0,-34.283997935095606,5.395132701334045,-8.291011246674861,-0.04,0.01,-0.13,11.909
132900.0,-34.32568257960019,5.370974749126533,-8.29439133654037,-0.07,0.01,-0.13,11.944
132900.0,-34.32568257960019,5.370974749126533,-8.29439133654037,-0.07,0.01,-0.13,11.944
133150.0,-34.89135543156606,5.486791278674677,-8.34750971771556,-0.12,0.0,-0.13,11.979000000000001
133150.0,-34.89135543156606,5.486791278674677,-8.34750971771556,-0.12,0.0,-0.13,11.979000000000001
133399.0,-35.48323571937727,5.631462369258363,-8.356722789132261,-0.12,0.0,-0.13,12.013
133399.0,-35.48323571937727,5.631462369258363,-8.356722789132261,-0.12,0.0,-0.13,12.013
133649.0,-35.581317235858656,5.585741936727945,-8.290704741935857,-0.1,0.0,-0.13,12.047
133649.0,-35.581317235858656,5.585741936727945,-8.290704741935857,-0.1,0.0,-0.13,12.047
133899.0,-35.50882160800814,5.550799115820983,-8.238256573072974,-0.09,0.0,-0.13,12.082
133899.0,-35.50882160800814,5.550799115820983,-8.238256573072974,-0.09,0.0,-0.13,12.082
134149.0,-35.58538802860398,5.575637098737734,-8.252354083519881,-0.08,0.0,-0.14,12.118
134149.0,-35.58538802860398,5.575637098737734,-8.252354083519881,-0.08,0.0,-0.14,12.118
134399.0,-35.68024228070254,5.641807971416817,-8.288849491802551,-0.07,0.0,-0.14,12.155000000000001
134399.0,-35.68024228070254,5.641807971416817,-8.288849491802551,-0.07,0.0,-0.14,12.155000000000001
134649.0,-35.72733301993519,5.67765493861516,-8.307967191289418,-0.05,0.0,-0.13,12.191
134649.0,-35.72733301993519,5.67765493861516,-8.307967191289418,-0.05,0.0,-0.13,12.191
134900.0,-35.7021159615195,5.709347443250842,-8.305043870324651,-0.03,0.0,-0.13,12.227
134900.0,-35.7021159615195,5.709347443250842,-8.305043870324651,-0.03,0.0,-0.13,12.227
135150.0,-35.66306777003454,5.728743046059563,-8.2958538507964,-0.03,0.0,-0.13,12.263
135150.0,-35.66306777003454,5.728743046059563,-8.2958538507964,-0.03,0.0,-0.13,12.263
135399.0,-35.65415437316767,5.794695779572029,-8.292294468465176,-0.02,0.0,-0.13,12.298
135399.0,-35.65415437316767,5.794695779572029,-8.292294468465176,-0.02,0.0,-0.13,12.298
135649.0,-35.64234156099813,5.812759495492597,-8.296715308405467,-0.02,0.0,-0.13,12.333
135649.0,-35.64234156099813,5.812759495492597,-8.296715308405467,-0.02,0.0,-0.13,12.333
135899.0,-35.66320778891252,5.816352174996024,-8.30113358702482,0.0,0.0,-0.13,12.368
135899.0,-35.66320778891252,5.816352174996024,-8.30113358702482,0.0,0.0,-0.13,12.368
136149.0,-35.413267261519664,5.779335111015493,-8.272458745341813,0.0,0.0,-0.13,12.404
136149.0,-35.413267261519664,5.779335111015493,-8.272458745341813,0.0,0.0,-0.13,12.404
136399.0,-35.33593585973678,5.757592057566404,-8.280534590261707,-0.02,0.0,-0.13,12.44
136399.0,-35.33593585973678,5.757592057566404,-8.280534590261707,-0.02,0.0,-0.13,12.44
136649.0,-35.759482720358434,5.891433883221035,-8.340566830424242,-0.05,0.0,-0.13,12.476
136649.0,-35.759482720358434,5.891433883221035,-8.340566830424242,-0.05,0.0,-0.13,12.476
136900.0,-35.89154442796063,5.952120967770245,-8.321922975311045,0.0,0.0,-0.12,12.511000000000001
136900.0,-35.89154442796063,5.952120967770245,-8.321922975311045,0.0,0.0,-0.12,12.511000000000001
137150.0,-35.07200710492373,5.714052162928511,-8.210986189038053,0.02,0.01,-0.13,12.547
137150.0,-35.07200710492373,5.714052162928511,-8.210986189038053,0.02,0.01,-0.13,12.547
137400.0,-35.01986885589444,5.618615210316393,-8.26263095689981,-0.06,0.01,-0.13,12.584
137400.0,-35.01986885589444,5.618615210316393,-8.26263095689981,-0.06,0.01,-0.13,12.584
137649.0,-35.93906888420558,5.888573314619269,-8.38621896106296,-0.08,0.01,-0.12,12.620000000000001
137649.0,-35.93906888420558,5.888573314619269,-8.38621896106296,-0.08,0.01,-0.12,12.620000000000001
137899.0,-36.05250808103574,5.950825793148881,-8.3413966984084,-0.05,0.01,-0.12,12.654
137899.0,-36.05250808103574,5.950825793148881,-8.3413966984084,-0.05,0.01,-0.12,12.654
138149.0,-35.43645575375186,5.750550986305767,-8.221909369068195,0.02,0.01,-0.13,12.689
138149.0,-35.43645575375186,5.750550986305767,-8.221909369068195,0.02,0.01,-0.13,12.689
138399.0,-34.7981882361925,5.622282168127043,-8.191482583863081,-0.01,0.0,-0.13,12.725
138399.0,-34.7981882361925,5.622282168127043,-8.191482583863081,-0.01,0.0,-0.13,12.725
138649.0,-35.46104784985849,5.901096466462488,-8.338591198206815,-0.08,0.0,-0.13,12.761000000000001
138649.0,-35.46104784985849,5.901096466462488,-8.338591198206815,-0.08,0.0,-0.13,12.761000000000001
138899.0,-35.92221880752316,6.042377221896909,-8.381682861680426,-0.06,0.0,-0.12,12.797
138899.0,-35.92221880752316,6.042377221896909,-8.381682861680426,-0.06,0.0,-0.12,12.797
139150.0,-35.600643256115205,5.973157950413884,-8.296095468738288,-0.04,0.0,-0.12,12.831
139150.0,-35.600643256115205,5.973157950413884,-8.296095468738288,-0.04,0.0,-0.12,12.831
139400.0,-35.337680973069716,5.89261038330557,-8.247113620879189,-0.04,0.0,-0.12,12.866
139400.0,-35.337680973069716,5.89261038330557,-8.247113620879189,-0.04,0.0,-0.12,12.866
139649.0,-35.365626692058825,5.908742009464671,-8.260753508651705,-0.05,0.0,-0.12,12.901
139649.0,-35.365626692058825,5.908742009464671,-8.260753508651705,-0.05,0.0,-0.12,12.901
139899.0,-35.506342249339426,5.951304333277605,-8.29288357228109,-0.05,0.01,-0.12,12.936
139899.0,-35.506342249339426,5.951304333277605,-8.29288357228109,-0.05,0.01,-0.12,12.936
140149.0,-35.65781193946821,5.960519966015245,-8.322402796100238,-0.09,0.01,-0.12,12.971
140149.0,-35.65781193946821,5.960519966015245,-8.322402796100238,-0.09,0.01,-0.12,12.971
140399.0,-35.9433923939502,5.9702115775606694,-8.33978135866969,-0.1,0.01,-0.13,13.005
140399.0,-35.9433923939502,5.9702115775606694,-8.33978135866969,-0.1,0.01,-0.13,13.005
140649.0,-36.23742520753008,6.002541424223279,-8.331878829799985,-0.15,0.0,-0.12,13.040000000000001
140649.0,-36.23742520753008,6.002541424223279,-8.331878829799985,-0.15,0.0,-0.12,13.040000000000001
140899.0,-37.086356249660135,6.185032552901795,-8.363296846208398,-0.19,0.0,-0.12,13.073
140899.0,-37.086356249660135,6.185032552901795,-8.363296846208398,-0.19,0.0,-0.12,13.073
141150.0,-37.23001561847301,6.146873566669403,-8.267023622309775,-0.09,0.0,-0.12,13.106
141150.0,-37.23001561847301,6.146873566669403,-8.267023622309775,-0.09,0.0,-0.12,13.106
141400.0,-36.67688640891787,5.9697569430940405,-8.171328403169666,-0.06,0.0,-0.13,13.139000000000001
141400.0,-36.67688640891787,5.9697569430940405,-8.171328403169666,-0.06,0.0,-0.13,13.139000000000001
141649.0,-36.65901863404912,6.017960576274583,-8.22277168045091,-0.06,0.0,-0.13,13.174
141649.0,-36.65901863404912,6.017960576274583,-8.22277168045091,-0.06,0.0,-0.13,13.174
141899.0,-36.81915241914007,6.220533741773406,-8.307705936553663,-0.05,0.0,-0.13,13.21
141899.0,-36.81915241914007,6.220533741773406,-8.307705936553663,-0.05,0.0,-0.13,13.21
142149.0,-36.93587010677183,6.312409177620186,-8.353920704025263,-0.04,0.0,-0.13,13.245000000000001
142149.0,-36.93587010677183,6.312409177620186,-8.353920704025263,-0.04,0.0,-0.13,13.245000000000001
142399.0,-36.85930710127057,6.268473985784079,-8.336817056569904,-0.02,0.0,-0.13,13.280000000000001
142399.0,-36.85930710127057,6.268473985784079,-8.336817056569904,-0.02,0.0,-0.13,13.280000000000001
142649.0,-36.802124757539225,6.161579817726087,-8.306931563856514,-0.01,0.0,-0.13,13.315
142649.0,-36.802124757539225,6.161579817726087,-8.306931563856514,-0.01,0.0,-0.13,13.315
142899.0,-36.84477245871678,6.147692335596159,-8.291251157069457,-0.02,0.0,-0.13,13.35
142899.0,-36.84477245871678,6.147692335596159,-8.291251157069457,-0.02,0.0,-0.13,13.35
143150.0,-36.813872682911644,6.2234382797179535,-8.274950910615221,0.0,0.0,-0.13,13.384
143150.0,-36.813872682911644,6.2234382797179535,-8.274950910615221,0.0,0.0,-0.13,13.384
143400.0,-36.66071935115245,6.208790085269215,-8.26610923073464,0.0,0.0,-0.13,13.419
143400.0,-36.66071935115245,6.208790085269215,-8.26610923073464,0.0,0.0,-0.13,13.419
143650.0,-36.622374669152,6.2457482388681544,-8.287680675680834,-0.01,0.0,-0.13,13.453
143650.0,-36.622374669152,6.2457482388681544,-8.287680675680834,-0.01,0.0,-0.13,13.453
143899.0,-36.6335351982558,6.258147166645843,-8.311156889631814,-0.01,0.0,-0.13,13.488
143899.0,-36.6335351982558,6.258147166645843,-8.311156889631814,-0.01,0.0,-0.13,13.488
144149.0,-36.6351744436566,6.226053815283246,-8.316533102282259,-0.01,0.0,-0.13,13.523
144149.0,-36.6351744436566,6.226053815283246,-8.316533102282259,-0.01,0.0,-0.13,13.523
144399.0,-36.671224182095926,6.278929724742899,-8.316825946642924,-0.04,0.0,-0.13,13.558
144399.0,-36.671224182095926,6.278929724742899,-8.316825946642924,-0.04,0.0,-0.13,13.558
144649.0,-36.85945736543231,6.3060682007494755,-8.317269055165328,-0.05,0.0,-0.13,13.593
144649.0,-36.85945736543231,6.3060682007494755,-8.317269055165328,-0.05,0.0,-0.13,13.593
144899.0,-36.802766795321205,6.253425798382072,-8.284939208502719,-0.04,0.0,-0.13,13.627
144899.0,-36.802766795321205,6.253425798382072,-8.284939208502719,-0.04,0.0,-0.13,13.627
145149.0,-36.6214628388978,6.2260119803745795,-8.264832839133494,-0.03,0.0,-0.13,13.662
145149.0,-36.6214628388978,6.2260119803745795,-8.264832839133494,-0.03,0.0,-0.13,13.662
145400.0,-36.56622026889074,6.232484865273635,-8.280792429902876,-0.04,0.0,-0.14,13.697000000000001
145400.0,-36.56622026889074,6.232484865273635,-8.280792429902876,-0.04,0.0,-0.14,13.697000000000001
145650.0,-36.60803127189497,6.316103456187517,-8.304606738217771,-0.04,0.0,-0.13,13.731
145650.0,-36.60803127189497,6.316103456187517,-8.304606738217771,-0.04,0.0,-0.13,13.731
145899.0,-36.65049455796494,6.382475392560293,-8.315825323929516,-0.05,0.0,-0.13,13.766
145899.0,-36.65049455796494,6.382475392560293,-8.315825323929516,-0.05,0.0,-0.13,13.766
146149.0,-36.66661721950076,6.367668823100175,-8.312861875603378,-0.05,0.0,-0.14,13.8
146149.0,-36.66661721950076,6.367668823100175,-8.312861875603378,-0.05,0.0,-0.14,13.8
146399.0,-36.6136286119198,6.31586482645339,-8.298055733030083,-0.04,0.0,-0.14,13.836
146399.0,-36.6136286119198,6.31586482645339,-8.298055733030083,-0.04,0.0,-0.14,13.836
146649.0,-36.55667166443106,6.2829411802198125,-8.291643892946732,-0.05,0.0,-0.14,13.871
146649.0,-36.55667166443106,6.2829411802198125,-8.291643892946732,-0.05,0.0,-0.14,13.871
146899.0,-36.66105744551636,6.2773455477422795,-8.304148261769734,-0.06,0.0,-0.13,13.906
146899.0,-36.66105744551636,6.2773455477422795,-8.304148261769734,-0.06,0.0,-0.13,13.906
147149.0,-36.71955460066294,6.335966073180737,-8.306643842137728,-0.06,0.0,-0.13,13.941
147149.0,-36.71955460066294,6.335966073180737,-8.306643842137728,-0.06,0.0,-0.13,13.941
147400.0,-36.807971399468755,6.384095001167232,-8.311132130196071,-0.09,0.0,-0.13,13.975
147400.0,-36.807971399468755,6.384095001167232,-8.311132130196071,-0.09,0.0,-0.13,13.975
147650.0,-37.09566579749886,6.431432054096828,-8.326458220919934,-0.11,0.0,-0.14,14.009
147650.0,-37.09566579749886,6.431432054096828,-8.326458220919934,-0.11,0.0,-0.14,14.009
147899.0,-37.54044088606092,6.534844106338583,-8.339778797348751,-0.12,-0.01,-0.13,14.043000000000001
147899.0,-37.54044088606092,6.534844106338583,-8.339778797348751,-0.12,-0.01,-0.13,14.043000000000001
148149.0,-37.68377240579364,6.504032696105833,-8.297071332015955,-0.09,0.0,-0.13,14.078000000000001
148149.0,-37.68377240579364,6.504032696105833,-8.297071332015955,-0.09,0.0,-0.13,14.078000000000001
148399.0,-37.40059276280491,6.364330995030154,-8.229595039431752,-0.04,0.0,-0.14,14.112
148399.0,-37.40059276280491,6.364330995030154,-8.229595039431752,-0.04,0.0,-0.14,14.112
148649.0,-37.193125766765775,6.32404397798448,-8.237079219214793,-0.05,0.0,-0.14,14.148
148649.0,-37.193125766765775,6.32404397798448,-8.237079219214793,-0.05,0.0,-0.14,14.148
148899.0,-37.40813670674319,6.4487124326969605,-8.310634380160307,-0.06,-0.01,-0.14,14.185
148899.0,-37.40813670674319,6.4487124326969605,-8.310634380160307,-0.06,-0.01,-0.14,14.185
149149.0,-37.55897118927917,6.547796279439043,-8.344587250524441,-0.05,0.0,-0.14,14.22
149149.0,-37.55897118927917,6.547796279439043,-8.344587250524441,-0.05,0.0,-0.14,14.22
149400.0,-37.53044490421061,6.503654474380543,-8.323759442424134,-0.04,0.0,-0.13,14.255
149400.0,-37.53044490421061,6.503654474380543,-8.323759442424134,-0.04,0.0,-0.13,14.255
149650.0,-37.447290766160286,6.458047593745076,-8.290589482493612,-0.03,0.0,-0.14,14.290000000000001
149650.0,-37.447290766160286,6.458047593745076,-8.290589482493612,-0.03,0.0,-0.14,14.290000000000001
149900.0,-37.39677810215346,6.471163691385616,-8.27610862767954,-0.03,0.0,-0.14,14.325000000000001
149900.0,-37.39677810215346,6.471163691385616,-8.27610862767954,-0.03,0.0,-0.14,14.325000000000001
150149.0,-37.431352519732066,6.474046031215361,-8.286821779392705,-0.03,0.0,-0.14,14.36
150149.0,-37.431352519732066,6.474046031215361,-8.286821779392705,-0.03,0.0,-0.14,14.36
150399.0,-37.46631625809336,6.539854476981611,-8.304320724046276,-0.04,0.0,-0.14,14.396
150399.0,-37.46631625809336,6.539854476981611,-8.304320724046276,-0.04,0.0,-0.14,14.396
150649.0,-37.46272699368452,6.598315773635043,-8.311392531158178,-0.03,-0.01,-0.14,14.43
150649.0,-37.46272699368452,6.598315773635043,-8.311392531158178,-0.03,-0.01,-0.14,14.43
150899.0,-37.40211247989524,6.596924549478476,-8.30632196947309,-0.03,0.0,-0.14,14.465
150899.0,-37.40211247989524,6.596924549478476,-8.30632196947309,-0.03,0.0,-0.14,14.465
151149.0,-37.425529783464626,6.5448827768712095,-8.310420936748745,-0.04,0.0,-0.14,14.5
151149.0,-37.425529783464626,6.5448827768712095,-8.310420936748745,-0.04,0.0,-0.14,14.5
151399.0,-37.44252329411962,6.606388203460352,-8.308247229045389,-0.04,0.0,-0.13,14.534
151399.0,-37.44252329411962,6.606388203460352,-8.308247229045389,-0.04,0.0,-0.13,14.534
151650.0,-37.42059838688388,6.6329337336696055,-8.30267550222995,-0.04,0.0,-0.14,14.569
151650.0,-37.42059838688388,6.6329337336696055,-8.30267550222995,-0.04,0.0,-0.14,14.569
151900.0,-37.41886693392928,6.608803529105597,-8.302381804095639,-0.04,0.0,-0.14,14.603
151900.0,-37.41886693392928,6.608803529105597,-8.302381804095639,-0.04,0.0,-0.14,14.603
152149.0,-37.414266801523276,6.542018793174859,-8.293748444984743,-0.04,0.0,-0.14,14.638
152149.0,-37.414266801523276,6.542018793174859,-8.293748444984743,-0.04,0.0,-0.14,14.638
152399.0,-37.422480104000215,6.591183775481079,-8.295267308301424,-0.04,0.0,-0.14,14.673
152399.0,-37.422480104000215,6.591183775481079,-8.295267308301424,-0.04,0.0,-0.14,14.673
152649.0,-37.48249356114253,6.563789167380628,-8.306498700617864,-0.04,0.0,-0.14,14.709
152649.0,-37.48249356114253,6.563789167380628,-8.306498700617864,-0.04,0.0,-0.14,14.709
152899.0,-37.456429559269765,6.534292141676282,-8.303752110797873,-0.03,0.0,-0.14,14.743
152899.0,-37.456429559269765,6.534292141676282,-8.303752110797873,-0.03,0.0,-0.14,14.743
153149.0,-37.342119513320434,6.550489081519321,-8.299866586933781,-0.03,0.0,-0.14,14.777000000000001
153149.0,-37.342119513320434,6.550489081519321,-8.299866586933781,-0.03,0.0,-0.14,14.777000000000001
153399.0,-37.38915902613431,6.563567613119425,-8.31759434292455,-0.04,0.0,-0.14,14.813
153399.0,-37.38915902613431,6.563567613119425,-8.31759434292455,-0.04,0.0,-0.14,14.813
153650.0,-37.49378044874598,6.589034400326641,-8.330533282533493,-0.04,0.0,-0.14,14.848
153650.0,-37.49378044874598,6.589034400326641,-8.330533282533493,-0.04,0.0,-0.14,14.848
153900.0,-37.43286199153864,6.615738732434099,-8.309174427225217,-0.04,0.0,-0.14,14.884
153900.0,-37.43286199153864,6.615738732434099,-8.309174427225217,-0.04,0.0,-0.14,14.884
154149.0,-37.39786751732608,6.646868173350078,-8.294872864876856,-0.04,0.0,-0.14,14.92
154149.0,-37.39786751732608,6.646868173350078,-8.294872864876856,-0.04,0.0,-0.14,14.92
154399.0,-37.448182105846975,6.6113678382521135,-8.296582119716652,-0.07,0.0,-0.14,14.955
154399.0,-37.448182105846975,6.6113678382521135,-8.296582119716652,-0.07,0.0,-0.14,14.955
154649.0,-38.07632386796178,6.742419104743972,-8.367884172009708,-0.14,0.0,-0.14,14.99
154649.0,-38.07632386796178,6.742419104743972,-8.367884172009708,-0.14,0.0,-0.14,14.99
154899.0,-38.73776963246957,6.9052089796484095,-8.383060852345476,-0.13,0.0,-0.13,15.024000000000001
154899.0,-38.73776963246957,6.9052089796484095,-8.383060852345476,-0.13,0.0,-0.13,15.024000000000001
155149.0,-38.51986269228407,6.816686739797282,-8.256414630981453,-0.05,0.0,-0.13,15.057
155149.0,-38.51986269228407,6.816686739797282,-8.256414630981453,-0.05,0.0,-0.13,15.057
155399.0,-37.94069680161284,6.612263873693855,-8.179110549955249,-0.03,0.0,-0.14,15.093
155399.0,-37.94069680161284,6.612263873693855,-8.179110549955249,-0.03,0.0,-0.14,15.093
155650.0,-38.07065139585609,6.666195474267099,-8.271020136747879,-0.05,0.0,-0.14,15.129
155650.0,-38.07065139585609,6.666195474267099,-8.271020136747879,-0.05,0.0,-0.14,15.129
155900.0,-38.35214739721441,6.88486312677141,-8.360813218671453,-0.05,0.0,-0.14,15.165000000000001
155900.0,-38.35214739721441,6.88486312677141,-8.360813218671453,-0.05,0.0,-0.14,15.165000000000001
156150.0,-38.44186876215169,6.920227284972798,-8.371733837380656,-0.04,0.0,-0.14,15.201
156150.0,-38.44186876215169,6.920227284972798,-8.371733837380656,-0.04,0.0,-0.14,15.201
156399.0,-38.351573661324124,6.839202458396229,-8.327691923838767,-0.03,0.0,-0.14,15.236
156399.0,-38.351573661324124,6.839202458396229,-8.327691923838767,-0.03,0.0,-0.14,15.236
156649.0,-38.323662093280866,6.747925944762295,-8.293736492153696,-0.04,0.0,-0.14,15.272
156649.0,-38.323662093280866,6.747925944762295,-8.293736492153696,-0.04,0.0,-0.14,15.272
156899.0,-38.43087898777714,6.812436654586241,-8.286880689774295,-0.04,0.0,-0.13,15.308
156899.0,-38.43087898777714,6.812436654586241,-8.286880689774295,-0.04,0.0,-0.13,15.308
157149.0,-38.45017427218243,6.833419849490167,-8.282157613963232,-0.04,0.0,-0.13,15.342
157149.0,-38.45017427218243,6.833419849490167,-8.282157613963232,-0.04,0.0,-0.13,15.342
157399.0,-38.46712338660782,6.856488386525062,-8.29188380334133,-0.03,0.0,-0.14,15.378
157399.0,-38.46712338660782,6.856488386525062,-8.29188380334133,-0.03,0.0,-0.14,15.378
157649.0,-38.343889698507866,6.919049931114617,-8.292189454306687,-0.02,0.0,-0.14,15.413
157649.0,-38.343889698507866,6.919049931114617,-8.292189454306687,-0.02,0.0,-0.14,15.413
157900.0,-38.285279845239984,6.885668235319826,-8.304738219359294,-0.02,0.0,-0.13,15.449
157900.0,-38.285279845239984,6.885668235319826,-8.304738219359294,-0.02,0.0,-0.13,15.449
158150.0,-38.251975842847,6.8511010748172145,-8.316381130573227,-0.02,0.0,-0.13,15.484
158150.0,-38.251975842847,6.8511010748172145,-8.316381130573227,-0.02,0.0,-0.13,15.484
158399.0,-38.28949407195788,6.872960241482194,-8.32630881053184,-0.03,0.0,-0.13,15.519
158399.0,-38.28949407195788,6.872960241482194,-8.32630881053184,-0.03,0.0,-0.13,15.519
158649.0,-38.364288058464105,6.853127506566593,-8.32450734813825,-0.04,0.0,-0.13,15.555
158649.0,-38.364288058464105,6.853127506566593,-8.32450734813825,-0.04,0.0,-0.13,15.555
158899.0,-38.29212369478834,6.778441522426618,-8.2959221526881,-0.04,0.0,-0.13,15.59
158899.0,-38.29212369478834,6.778441522426618,-8.2959221526881,-0.04,0.0,-0.13,15.59
159149.0,-38.25389171090919,6.728366417413493,-8.284724911317511,-0.04,0.0,-0.13,15.625
159149.0,-38.25389171090919,6.728366417413493,-8.284724911317511,-0.04,0.0,-0.13,15.625
159399.0,-38.31618645123429,6.779580883357541,-8.29385175159594,-0.05,0.0,-0.13,15.66
159399.0,-38.31618645123429,6.779580883357541,-8.29385175159594,-0.05,0.0,-0.13,15.66
159649.0,-38.36650103975519,6.885576027766031,-8.304756148605865,-0.05,-0.01,-0.13,15.695
159649.0,-38.36650103975519,6.885576027766031,-8.304756148605865,-0.05,-0.01,-0.13,15.695
159900.0,-38.33630135833998,6.894754094463235,-8.305896790197258,-0.05,0.0,-0.13,15.73
159900.0,-38.33630135833998,6.894754094463235,-8.305896790197258,-0.05,0.0,-0.13,15.73
160150.0,-38.30428826170013,6.841882026984989,-8.30692558744099,-0.04,-0.01,-0.13,15.765
160150.0,-38.30428826170013,6.841882026984989,-8.30692558744099,-0.04,-0.01,-0.13,15.765
160399.0,-38.25676722054976,6.883989289444472,-8.309658516882642,-0.04,0.0,-0.13,15.801
160399.0,-38.25676722054976,6.883989289444472,-8.309658516882642,-0.04,0.0,-0.13,15.801
160649.0,-38.29250277028727,6.855789145908782,-8.320280314815658,-0.05,0.0,-0.13,15.836
160649.0,-38.29250277028727,6.855789145908782,-8.320280314815658,-0.05,0.0,-0.13,15.836
160899.0,-38.32822465964644,6.826621676831889,-8.316797772112597,-0.05,0.0,-0.13,15.870000000000001
160899.0,-38.32822465964644,6.826621676831889,-8.316797772112597,-0.05,0.0,-0.13,15.870000000000001
161149.0,-38.35589717106875,6.882123794027413,-8.308236983761633,-0.05,0.0,-0.13,15.905000000000001
161149.0,-38.35589717106875,6.882123794027413,-8.308236983761633,-0.05,0.0,-0.13,15.905000000000001
161399.0,-38.32754847091861,6.889129860568553,-8.29814537926294,-0.05,0.0,-0.13,15.94
161399.0,-38.32754847091861,6.889129860568553,-8.29814537926294,-0.05,0.0,-0.13,15.94
161649.0,-38.3911204566185,6.87103540879672,-8.310488384866797,-0.08,0.0,-0.13,15.974
161649.0,-38.3911204566185,6.87103540879672,-8.310488384866797,-0.08,0.0,-0.13,15.974
161900.0,-38.79963065578238,6.966695623217333,-8.350895783996593,-0.1,-0.01,-0.13,16.008
161900.0,-38.79963065578238,6.966695623217333,-8.350895783996593,-0.1,-0.01,-0.13,16.008
162150.0,-39.089199940739654,7.0664360218933835,-8.341192646506943,-0.12,0.0,-0.13,16.042
162150.0,-39.089199940739654,7.0664360218933835,-8.341192646506943,-0.12,0.0,-0.13,16.042
162400.0,-39.24456283869535,6.970068029120027,-8.30422680894519,-0.08,0.0,-0.13,16.076
162400.0,-39.24456283869535,6.970068029120027,-8.30422680894519,-0.08,0.0,-0.13,16.076
162649.0,-39.013360935290414,6.848063348183851,-8.239927408098689,-0.06,0.0,-0.14,16.11
162649.0,-39.013360935290414,6.848063348183851,-8.239927408098689,-0.06,0.0,-0.14,16.11
162899.0,-38.96444653554937,6.907485140189316,-8.260785098276616,-0.07,-0.01,-0.14,16.145
162899.0,-38.96444653554937,6.907485140189316,-8.260785098276616,-0.07,-0.01,-0.14,16.145
163149.0,-39.0955895827082,7.052586959577536,-8.322410480063056,-0.07,-0.01,-0.13,16.18
163149.0,-39.0955895827082,7.052586959577536,-8.322410480063056,-0.07,-0.01,-0.13,16.18
163399.0,-39.18296819276017,7.137938284106485,-8.36054257242559,-0.05,-0.01,-0.13,16.214
163399.0,-39.18296819276017,7.137938284106485,-8.36054257242559,-0.05,-0.01,-0.13,16.214
163649.0,-39.12739777367295,7.132446812013795,-8.342491236222893,-0.04,0.0,-0.14,16.249
163649.0,-39.12739777367295,7.132446812013795,-8.342491236222893,-0.04,0.0,-0.14,16.249
163899.0,-39.0733129207302,7.003271286222752,-8.313306691673075,-0.04,0.0,-0.14,16.284
163899.0,-39.0733129207302,7.003271286222752,-8.313306691673075,-0.04,0.0,-0.14,16.284
164150.0,-39.043376201598036,6.922717315812091,-8.294947996957728,-0.03,0.0,-0.13,16.319
164150.0,-39.043376201598036,6.922717315812091,-8.294947996957728,-0.03,0.0,-0.13,16.319
164400.0,-39.028541030720774,6.964710599489798,-8.28981340224917,-0.03,0.0,-0.14,16.354
164400.0,-39.028541030720774,6.964710599489798,-8.28981340224917,-0.03,0.0,-0.14,16.354
164649.0,-38.99892874557418,7.0168561055950835,-8.298946218943122,-0.02,0.0,-0.14,16.389
164649.0,-38.99892874557418,7.0168561055950835,-8.298946218943122,-0.02,0.0,-0.14,16.389
164899.0,-38.95243223279932,7.038554335927745,-8.31088880470689,-0.03,0.0,-0.14,16.425
164899.0,-38.95243223279932,7.038554335927745,-8.31088880470689,-0.03,0.0,-0.14,16.425
165149.0,-38.935896344818715,7.062112939035588,-8.318799017539412,-0.03,0.0,-0.14,16.459
165149.0,-38.935896344818715,7.062112939035588,-8.318799017539412,-0.03,0.0,-0.14,16.459
165399.0,-38.91279322995115,7.040845864394284,-8.319625470428983,-0.03,0.0,-0.13,16.495
165399.0,-38.91279322995115,7.040845864394284,-8.319625470428983,-0.03,0.0,-0.13,16.495
165649.0,-38.98069214049025,7.035103382849596,-8.325659088787043,-0.04,0.0,-0.13,16.53
165649.0,-38.98069214049025,7.035103382849596,-8.325659088787043,-0.04,0.0,-0.13,16.53
165899.0,-39.031061370524505,7.046977666721663,-8.317041951375426,-0.04,0.0,-0.13,16.565
165899.0,-39.031061370524505,7.046977666721663,-8.317041951375426,-0.04,0.0,-0.13,16.565
166150.0,-39.02402286058481,7.072948607266991,-8.301840511603915,-0.04,0.0,-0.14,16.6
166150.0,-39.02402286058481,7.072948607266991,-8.301840511603915,-0.04,0.0,-0.14,16.6
166400.0,-39.04481737151291,7.0818287069616535,-8.30323557774189,-0.04,0.0,-0.13,16.635
166400.0,-39.04481737151291,7.0818287069616535,-8.30323557774189,-0.04,0.0,-0.13,16.635
166649.0,-39.054331825026736,7.077544470804763,-8.304831280686734,-0.04,0.0,-0.13,16.67
166649.0,-39.054331825026736,7.077544470804763,-8.304831280686734,-0.04,0.0,-0.13,16.67
166899.0,-39.05969693861979,6.978250168858879,-8.309965875395292,-0.04,0.0,-0.13,16.705000000000002
166899.0,-39.05969693861979,6.978250168858879,-8.309965875395292,-0.04,0.0,-0.13,16.705000000000002
167149.0,-39.04834857931381,6.9628258941656975,-8.31409813984315,-0.04,0.0,-0.13,16.740000000000002
167149.0,-39.04834857931381,6.9628258941656975,-8.31409813984315,-0.04,0.0,-0.13,16.740000000000002
167399.0,-39.01762638842709,7.011843173631117,-8.307141592173492,-0.04,0.0,-0.14,16.775
167399.0,-39.01762638842709,7.011843173631117,-8.307141592173492,-0.04,0.0,-0.14,16.775
167649.0,-39.03565467274134,6.981836018173136,-8.305819950569095,-0.04,0.0,-0.14,16.811
167649.0,-39.03565467274134,6.981836018173136,-8.305819950569095,-0.04,0.0,-0.14,16.811
167899.0,-39.05609059873802,6.95909789153934,-8.309037823441816,-0.04,0.0,-0.13,16.846
167899.0,-39.05609059873802,6.95909789153934,-8.309037823441816,-0.04,0.0,-0.13,16.846
168150.0,-39.02948359682623,6.997380674950438,-8.307775945992656,-0.04,0.0,-0.13,16.881
168150.0,-39.02948359682623,6.997380674950438,-8.307775945992656,-0.04,0.0,-0.13,16.881
168400.0,-39.06152059912818,6.999222264705403,-8.31551711164322,-0.04,-0.01,-0.13,16.916
168400.0,-39.06152059912818,6.999222264705403,-8.31551711164322,-0.04,-0.01,-0.13,16.916
168650.0,-39.14054930291981,7.088023261652031,-8.322039088526935,-0.07,-0.01,-0.13,16.95
168650.0,-39.14054930291981,7.088023261652031,-8.322039088526935,-0.07,-0.01,-0.13,16.95
168899.0,-39.54846869072048,7.217432721422147,-8.354313439902539,-0.12,-0.01,-0.13,16.985
168899.0,-39.54846869072048,7.217432721422147,-8.354313439902539,-0.12,-0.01,-0.13,16.985
169149.0,-40.12975194003442,7.310617846042278,-8.371364153391829,-0.13,-0.01,-0.12,17.019000000000002
169149.0,-40.12975194003442,7.310617846042278,-8.371364153391829,-0.13,-0.01,-0.12,17.019000000000002
169399.0,-40.02482657400468,7.183502049172817,-8.26516410330824,-0.04,0.0,-0.13,17.052
169399.0,-40.02482657400468,7.183502049172817,-8.26516410330824,-0.04,0.0,-0.13,17.052
169649.0,-39.46923508125375,6.973757611932303,-8.18203045582543,-0.03,0.0,-0.14,17.086000000000002
169649.0,-39.46923508125375,6.973757611932303,-8.18203045582543,-0.03,0.0,-0.14,17.086000000000002
169899.0,-39.532649972602734,7.110543676006033,-8.267862028030395,-0.05,-0.01,-0.14,17.123
169899.0,-39.532649972602734,7.110543676006033,-8.267862028030395,-0.05,-0.01,-0.14,17.123
170149.0,-39.784653217124934,7.301665175587684,-8.366648761543582,-0.05,-0.01,-0.14,17.159
170149.0,-39.784653217124934,7.301665175587684,-8.366648761543582,-0.05,-0.01,-0.14,17.159
170400.0,-39.89868664041288,7.343630711621889,-8.389762121694904,-0.05,0.0,-0.13,17.196
170400.0,-39.89868664041288,7.343630711621889,-8.389762121694904,-0.05,0.0,-0.13,17.196
170650.0,-39.89030941339586,7.229332618503602,-8.348922713100107,-0.04,0.0,-0.13,17.231
170650.0,-39.89030941339586,7.229332618503602,-8.348922713100107,-0.04,0.0,-0.13,17.231
170899.0,-39.82340771047559,7.137352595385156,-8.297481143366156,-0.03,0.0,-0.13,17.267
170899.0,-39.82340771047559,7.137352595385156,-8.297481143366156,-0.03,0.0,-0.13,17.267
171149.0,-39.81059769068723,7.123803207619144,-8.273344108612976,-0.03,0.0,-0.13,17.302
171149.0,-39.81059769068723,7.123803207619144,-8.273344108612976,-0.03,0.0,-0.13,17.302
171399.0,-39.84065393812987,7.105521352531958,-8.27879630711794,-0.04,-0.01,-0.13,17.337
171399.0,-39.84065393812987,7.105521352531958,-8.27879630711794,-0.04,-0.01,-0.13,17.337
171649.0,-39.86940220434646,7.177297676085506,-8.296247440447322,-0.04,0.0,-0.13,17.372
171649.0,-39.86940220434646,7.177297676085506,-8.296247440447322,-0.04,0.0,-0.13,17.372
171899.0,-39.867110675879914,7.219155636640283,-8.312398276513463,-0.04,-0.01,-0.13,17.408
171899.0,-39.867110675879914,7.219155636640283,-8.312398276513463,-0.04,-0.01,-0.13,17.408
172149.0,-39.89908620647933,7.2132603296129165,-8.327563004018185,-0.03,0.0,-0.13,17.444
172149.0,-39.89908620647933,7.2132603296129165,-8.327563004018185,-0.03,0.0,-0.13,17.444
172400.0,-39.838341919095825,7.187694931549558,-8.3175601919787,-0.03,0.0,-0.13,17.479
172400.0,-39.838341919095825,7.187694931549558,-8.3175601919787,-0.03,0.0,-0.13,17.479
172650.0,-39.83779208886764,7.1477233838661745,-8.311747700995019,-0.03,0.0,-0.13,17.514
172650.0,-39.83779208886764,7.1477233838661745,-8.311747700995019,-0.03,0.0,-0.13,17.514
172899.0,-39.84580048566948,7.163743165677616,-8.30724233746375,-0.03,-0.01,-0.13,17.549
172899.0,-39.84580048566948,7.163743165677616,-8.30724233746375,-0.03,-0.01,-0.13,17.549
173149.0,-39.75490432819495,7.224327797389275,-8.294659421465294,-0.02,-0.01,-0.13,17.584
173149.0,-39.75490432819495,7.224327797389275,-8.294659421465294,-0.02,-0.01,-0.13,17.584
173399.0,-39.71455840076768,7.217023763845593,-8.300266153000228,-0.03,0.0,-0.13,17.619
173399.0,-39.71455840076768,7.217023763845593,-8.300266153000228,-0.03,0.0,-0.13,17.619
173649.0,-39.72099585406042,7.118397539777901,-8.31251951237123,-0.03,0.0,-0.13,17.654
173649.0,-39.72099585406042,7.118397539777901,-8.31251951237123,-0.03,0.0,-0.13,17.654
173899.0,-39.66445896320564,7.143858350569594,-8.311786974582747,-0.04,-0.01,-0.13,17.689
173899.0,-39.66445896320564,7.143858350569594,-8.311786974582747,-0.04,-0.01,-0.13,17.689
174149.0,-39.67806811512689,7.19374647915419,-8.324494541533555,-0.05,-0.01,-0.13,17.724
174149.0,-39.67806811512689,7.19374647915419,-8.324494541533555,-0.05,-0.01,-0.13,17.724
174400.0,-39.70630411715572,7.189977068505989,-8.33403460825677,-0.05,0.0,-0.13,17.758
174400.0,-39.70630411715572,7.189977068505989,-8.33403460825677,-0.05,0.0,-0.13,17.758
174650.0,-39.72032649552176,7.147610685744869,-8.325290258571862,-0.06,-0.01,-0.13,17.793
174650.0,-39.72032649552176,7.147610685744869,-8.325290258571862,-0.06,-0.01,-0.13,17.793
174900.0,-39.69362728605618,7.1693763641955846,-8.30785278562082,-0.05,-0.01,-0.13,17.828
174900.0,-39.69362728605618,7.1693763641955846,-8.30785278562082,-0.05,-0.01,-0.13,17.828
175149.0,-39.71595517445295,7.154611629644132,-8.304485502360004,-0.06,-0.01,-0.13,17.864
175149.0,-39.71595517445295,7.154611629644132,-8.304485502360004,-0.06,-0.01,-0.13,17.864
175399.0,-39.814695804189235,7.169863015173948,-8.315153404069918,-0.1,-0.01,-0.13,17.899
175399.0,-39.814695804189235,7.169863015173948,-8.315153404069918,-0.1,-0.01,-0.13,17.899
175649.0,-40.26892728965718,7.295239675125994,-8.365172586909212,-0.13,-0.01,-0.12,17.932
175649.0,-40.26892728965718,7.295239675125994,-8.365172586909212,-0.13,-0.01,-0.12,17.932
175899.0,-40.57967357613608,7.326914677401929,-8.349714161270182,-0.11,-0.01,-0.12,17.965
175899.0,-40.57967357613608,7.326914677401929,-8.349714161270182,-0.11,-0.01,-0.12,17.965
176149.0,-40.52476227030376,7.198421743641063,-8.280011227016555,-0.09,-0.01,-0.12,17.999
176149.0,-40.52476227030376,7.198421743641063,-8.280011227016555,-0.09,-0.01,-0.12,17.999
176399.0,-40.39192875132536,7.160316972035209,-8.245791979274792,-0.07,-0.01,-0.13,18.033
176399.0,-40.39192875132536,7.160316972035209,-8.245791979274792,-0.07,-0.01,-0.13,18.033
176650.0,-40.429709942719285,7.231204944109832,-8.276959840004851,-0.07,-0.01,-0.13,18.067
176650.0,-40.429709942719285,7.231204944109832,-8.276959840004851,-0.07,-0.01,-0.13,18.067
176900.0,-40.558667329343706,7.374641478001038,-8.323859333940744,-0.06,-0.01,-0.13,18.102
176900.0,-40.558667329343706,7.374641478001038,-8.323859333940744,-0.06,-0.01,-0.13,18.102
177149.0,-40.54746923419947,7.348299145919592,-8.329387518300223,-0.05,-0.01,-0.13,18.137
177149.0,-40.54746923419947,7.348299145919592,-8.329387518300223,-0.05,-0.01,-0.13,18.137
177399.0,-40.4888354752695,7.296138698775497,-8.322331079113955,-0.04,0.0,-0.14,18.172
177399.0,-40.4888354752695,7.296138698775497,-8.322331079113955,-0.04,0.0,-0.14,18.172
177649.0,-40.440631415202134,7.311817398015261,-8.31462406440924,-0.04,0.0,-0.14,18.208000000000002
177649.0,-40.440631415202134,7.311817398015261,-8.31462406440924,-0.04,0.0,-0.14,18.208000000000002
177899.0,-40.430287093704145,7.280120197624525,-8.3136652766045,-0.04,0.0,-0.13,18.244
177899.0,-40.430287093704145,7.280120197624525,-8.3136652766045,-0.04,0.0,-0.13,18.244
178149.0,-40.46338960551662,7.263608215306019,-8.316102800364549,-0.04,0.0,-0.13,18.279
178149.0,-40.46338960551662,7.263608215306019,-8.316102800364549,-0.04,0.0,-0.13,18.279
178399.0,-40.507936099283434,7.267178696694643,-8.314571130443174,-0.04,0.0,-0.13,18.314
178399.0,-40.507936099283434,7.267178696694643,-8.314571130443174,-0.04,0.0,-0.13,18.314
178650.0,-40.46717011522222,7.230461307263947,-8.30021321903416,-0.03,0.0,-0.13,18.349
178650.0,-40.46717011522222,7.230461307263947,-8.30021321903416,-0.03,0.0,-0.13,18.349
178900.0,-40.36570765510168,7.213654773037485,-8.291819770317861,-0.03,0.0,-0.13,18.384
178900.0,-40.36570765510168,7.213654773037485,-8.291819770317861,-0.03,0.0,-0.13,18.384
179149.0,-40.3874993736486,7.204847244102753,-8.311576092492123,-0.03,0.0,-0.13,18.418
179149.0,-40.3874993736486,7.204847244102753,-8.311576092492123,-0.03,0.0,-0.13,18.418
179399.0,-40.38265335443248,7.247973912295859,-8.324207673588415,-0.04,-0.01,-0.13,18.453
179399.0,-40.38265335443248,7.247973912295859,-8.324207673588415,-0.04,-0.01,-0.13,18.453
179649.0,-40.436417188484235,7.370097694655688,-8.33674533958362,-0.05,0.0,-0.13,18.489
179649.0,-40.436417188484235,7.370097694655688,-8.33674533958362,-0.05,0.0,-0.13,18.489
179899.0,-40.51166196747568,7.311401610249537,-8.334400023377366,-0.05,0.0,-0.13,18.523
179899.0,-40.51166196747568,7.311401610249537,-8.334400023377366,-0.05,0.0,-0.13,18.523
180149.0,-40.499760362846935,7.2576249695930874,-8.31080684243685,-0.04,0.0,-0.13,18.558
180149.0,-40.499760362846935,7.2576249695930874,-8.31080684243685,-0.04,0.0,-0.13,18.558
180399.0,-40.48725428647664,7.21059228696838,-8.30197626161367,-0.04,0.0,-0.14,18.593
180399.0,-40.48725428647664,7.21059228696838,-8.30197626161367,-0.04,0.0,-0.14,18.593
180650.0,-40.53924910153336,7.209052079310542,-8.31362002660125,-0.05,-0.01,-0.13,18.628
180650.0,-40.53924910153336,7.209052079310542,-8.31362002660125,-0.05,-0.01,-0.13,18.628
180900.0,-40.56378997122122,7.244175473343686,-8.318326880713034,-0.04,-0.01,-0.13,18.662
180900.0,-40.56378997122122,7.244175473343686,-8.318326880713034,-0.04,-0.01,-0.13,18.662
181150.0,-40.52488521370882,7.237548482301482,-8.315123521992298,-0.04,-0.01,-0.13,18.697
181150.0,-40.52488521370882,7.237548482301482,-8.315123521992298,-0.04,-0.01,-0.13,18.697
181399.0,-40.56786417906113,7.2453852706004245,-8.32331121125985,-0.05,-0.01,-0.13,18.73
181399.0,-40.56786417906113,7.2453852706004245,-8.32331121125985,-0.05,-0.01,-0.13,18.73
181649.0,-40.58139819890151,7.218744971516436,-8.320716593148893,-0.03,-0.01,-0.13,18.764
181649.0,-40.58139819890151,7.218744971516436,-8.320716593148893,-0.03,-0.01,-0.13,18.764
181899.0,-40.3170049912249,7.256958172375366,-8.286272802938164,-0.02,-0.02,-0.14,18.799
181899.0,-40.3170049912249,7.256958172375366,-8.286272802938164,-0.02,-0.02,-0.14,18.799
182149.0,-40.32723661460158,7.288236169905792,-8.317590927829965,-0.07,-0.01,-0.14,18.834
182149.0,-40.32723661460158,7.288236169905792,-8.317590927829965,-0.07,-0.01,-0.14,18.834
182399.0,-40.75566023029063,7.3124705348546435,-8.38091190407786,-0.08,-0.01,-0.13,18.869
182399.0,-40.75566023029063,7.3124705348546435,-8.38091190407786,-0.08,-0.01,-0.13,18.869
182649.0,-40.65573114763876,7.269335328925075,-8.317813762751637,-0.01,0.0,-0.14,18.904
182649.0,-40.65573114763876,7.269335328925075,-8.317813762751637,-0.01,0.0,-0.14,18.904
182900.0,-40.07337555862513,7.057789002404147,-8.23191644997591,-0.06,-0.01,-0.14,18.94
182900.0,-40.07337555862513,7.057789002404147,-8.23191644997591,-0.06,-0.01,-0.14,18.94
183150.0,-40.726461171588824,7.334298111894712,-8.363898756629006,-0.11,-0.01,-0.13,18.976
183150.0,-40.726461171588824,7.334298111894712,-8.363898756629006,-0.11,-0.01,-0.13,18.976
183399.0,-41.139264144646056,7.480073131803001,-8.382931932524892,-0.11,-0.02,-0.13,19.009
183399.0,-41.139264144646056,7.480073131803001,-8.382931932524892,-0.11,-0.02,-0.13,19.009
183649.0,-41.140370635291596,7.441144468628514,-8.321552437548572,-0.09,-0.01,-0.13,19.043
183649.0,-41.140370635291596,7.441144468628514,-8.321552437548572,-0.09,-0.01,-0.13,19.043
183899.0,-41.000262964847124,7.275541409559677,-8.268781542247408,-0.08,0.0,-0.14,19.079
183899.0,-41.000262964847124,7.275541409559677,-8.268781542247408,-0.08,0.0,-0.14,19.079
184149.0,-41.0259615515993,7.226890825875323,-8.284892250952176,-0.08,-0.01,-0.14,19.115000000000002
184149.0,-41.0259615515993,7.226890825875323,-8.284892250952176,-0.08,-0.01,-0.14,19.115000000000002
184399.0,-41.13718776713837,7.357478920164089,-8.321616470572042,-0.08,-0.01,-0.13,19.150000000000002
184399.0,-41.13718776713837,7.357478920164089,-8.321616470572042,-0.08,-0.01,-0.13,19.150000000000002
184649.0,-41.1638084294285,7.409113442742093,-8.32960437680637,-0.07,-0.01,-0.13,19.184
184649.0,-41.1638084294285,7.409113442742093,-8.32960437680637,-0.07,-0.01,-0.13,19.184
184900.0,-41.12930914393076,7.40338120648116,-8.319137965676973,-0.06,0.0,-0.13,19.219
184900.0,-41.12930914393076,7.40338120648116,-8.319137965676973,-0.06,0.0,-0.13,19.219
185150.0,-41.04749030786318,7.346150197651976,-8.305249629773398,-0.04,0.0,-0.13,19.253
185150.0,-41.04749030786318,7.346150197651976,-8.305249629773398,-0.04,0.0,-0.13,19.253
185399.0,-41.01069266370973,7.368989496462853,-8.302917973945485,-0.05,-0.01,-0.13,19.288
185399.0,-41.01069266370973,7.368989496462853,-8.302917973945485,-0.05,-0.01,-0.13,19.288
185649.0,-41.07165551714669,7.372520704263749,-8.313921408698375,-0.05,0.0,-0.14,19.323
185649.0,-41.07165551714669,7.372520704263749,-8.313921408698375,-0.05,0.0,-0.14,19.323
185899.0,-41.11434761455385,7.295699005347678,-8.31254939444885,-0.05,0.0,-0.14,19.359
185899.0,-41.11434761455385,7.295699005347678,-8.31254939444885,-0.05,0.0,-0.14,19.359
186149.0,-41.039512646912605,7.32108340339803,-8.293889317636374,-0.04,0.0,-0.13,19.394000000000002
186149.0,-41.039512646912605,7.32108340339803,-8.293889317636374,-0.04,0.0,-0.13,19.394000000000002
186399.0,-41.031815023718,7.372320921230527,-8.2998964690114,-0.05,0.0,-0.13,19.429000000000002
186399.0,-41.031815023718,7.372320921230527,-8.2998964690114,-0.05,0.0,-0.13,19.429000000000002
186649.0,-41.0759346306617,7.383132256913011,-8.315802272041068,-0.05,0.0,-0.14,19.464
186649.0,-41.0759346306617,7.383132256913011,-8.315802272041068,-0.05,0.0,-0.14,19.464
186900.0,-41.064070592073385,7.344144683356932,-8.3179700033289,-0.04,0.0,-0.14,19.5
186900.0,-41.064070592073385,7.344144683356932,-8.3179700033289,-0.04,0.0,-0.14,19.5
187150.0,-41.01221921098924,7.303073902103999,-8.310703535825654,-0.05,0.0,-0.14,19.535
187150.0,-41.01221921098924,7.303073902103999,-8.310703535825654,-0.05,0.0,-0.14,19.535
187400.0,-41.05799513880666,7.361631675179457,-8.31969206477339,-0.06,0.0,-0.13,19.57
187400.0,-41.05799513880666,7.361631675179457,-8.31969206477339,-0.06,0.0,-0.13,19.57
187649.0,-41.110239255768086,7.4035724517779204,-8.325402956693168,-0.05,0.0,-0.13,19.604
187649.0,-41.110239255768086,7.4035724517779204,-8.325402956693168,-0.05,0.0,-0.13,19.604
187899.0,-41.14948552273898,7.424959481616523,-8.329875023052233,-0.08,0.0,-0.13,19.639
187899.0,-41.14948552273898,7.424959481616523,-8.329875023052233,-0.08,0.0,-0.13,19.639
188149.0,-41.47607101790314,7.444848138705954,-8.36470386517742,-0.12,0.0,-0.13,19.673000000000002
188149.0,-41.47607101790314,7.444848138705954,-8.36470386517742,-0.12,0.0,-0.13,19.673000000000002
188399.0,-41.92301469152668,7.505266284556594,-8.376557658481978,-0.11,0.0,-0.13,19.707
188399.0,-41.92301469152668,7.505266284556594,-8.376557658481978,-0.11,0.0,-0.13,19.707
188649.0,-41.65449946468597,7.389521045107911,-8.258701890579761,-0.05,0.0,-0.14,19.741
188649.0,-41.65449946468597,7.389521045107911,-8.258701890579761,-0.05,0.0,-0.14,19.741
188899.0,-41.36437693440592,7.220776952794515,-8.219124359434122,-0.06,0.0,-0.14,19.776
188899.0,-41.36437693440592,7.220776952794515,-8.219124359434122,-0.06,0.0,-0.14,19.776
189150.0,-41.56546794885485,7.296017462917729,-8.29710206786722,-0.07,0.0,-0.14,19.811
189150.0,-41.56546794885485,7.296017462917729,-8.29710206786722,-0.07,0.0,-0.14,19.811
189400.0,-41.719369186328166,7.4508552900809795,-8.341833830515279,-0.06,-0.01,-0.13,19.845
189400.0,-41.719369186328166,7.4508552900809795,-8.341833830515279,-0.06,-0.01,-0.13,19.845
189649.0,-41.59134753562003,7.493852184679856,-8.324161569811517,-0.04,-0.01,-0.14,19.88
189649.0,-41.59134753562003,7.493852184679856,-8.324161569811517,-0.04,-0.01,-0.14,19.88
