time_boot_ms,pitch,roll,yaw,vx,vy,vz,relative_alt
7418467.0,-10.818493720734107,10.966325481356217,1.8767385487638082,-0.01,0.17,-0.25,9.729000000000001
7418467.0,-10.818493720734107,10.966325481356217,1.8767385487638082,-0.01,0.17,-0.25,9.729000000000001
7418717.0,-10.548741375879978,10.316063297840676,1.936672604957024,-0.02,0.15,-0.18,9.789
7418717.0,-10.548741375879978,10.316063297840676,1.936672604957024,-0.02,0.15,-0.18,9.789
7418967.0,-10.36649058448288,10.47071585612269,2.004586029648107,-0.04,0.11,-0.14,9.833
7418967.0,-10.36649058448288,10.47071585612269,2.004586029648107,-0.04,0.11,-0.14,9.833
7419216.0,-10.385028571663941,10.763397146020553,2.0275728178563734,-0.06,0.09,-0.11,9.866
7419216.0,-10.385028571663941,10.763397146020553,2.0275728178563734,-0.06,0.09,-0.11,9.866
7419466.0,-10.378827613671216,10.705665825834666,2.039241769166517,-0.07,0.09,-0.1,9.892
7419466.0,-10.378827613671216,10.705665825834666,2.039241769166517,-0.07,0.09,-0.1,9.892
7419716.0,-10.242763415215391,10.493583329463892,2.04879656348513,-0.07,0.1,-0.17,9.925
7419716.0,-10.242763415215391,10.493583329463892,2.04879656348513,-0.07,0.1,-0.17,9.925
7419966.0,-10.082138710277848,10.35226159289445,2.0343709905146516,-0.08,0.08,-0.2,9.972
7419966.0,-10.082138710277848,10.35226159289445,2.0343709905146516,-0.08,0.08,-0.2,9.972
7420216.0,-10.150490974623105,10.483011904176005,1.9814180279834237,-0.1,0.06,-0.21,10.022
7420216.0,-10.150490974623105,10.483011904176005,1.9814180279834237,-0.1,0.06,-0.21,10.022
7420467.0,-10.308107835004904,10.634485863173024,1.9500717285612965,-0.11,0.04,-0.2,10.073
7420467.0,-10.308107835004904,10.634485863173024,1.9500717285612965,-0.11,0.04,-0.2,10.073
7420717.0,-10.35017070123478,10.730951186142054,1.982822272188096,-0.11,0.04,-0.19,10.120000000000001
7420717.0,-10.35017070123478,10.730951186142054,1.982822272188096,-0.11,0.04,-0.19,10.120000000000001
7420967.0,-10.43791899527558,10.717990902191953,2.006916618258962,-0.12,0.03,-0.18,10.164
7420967.0,-10.43791899527558,10.717990902191953,2.006916618258962,-0.12,0.03,-0.18,10.164
7421216.0,-10.614289847570943,10.714094279270462,2.0088604474080656,-0.12,0.03,-0.17,10.205
7421216.0,-10.614289847570943,10.714094279270462,2.0088604474080656,-0.12,0.03,-0.17,10.205
7421466.0,-10.677677418163245,10.790658138545366,2.0164312852162016,-0.12,0.02,-0.16,10.245000000000001
7421466.0,-10.677677418163245,10.790658138545366,2.0164312852162016,-0.12,0.02,-0.16,10.245000000000001
7421716.0,-10.702452221830175,10.844503934867161,2.0149694112904073,-0.11,0.02,-0.16,10.283
7421716.0,-10.702452221830175,10.844503934867161,2.0149694112904073,-0.11,0.02,-0.16,10.283
7421966.0,-10.746237149504541,10.944409111856938,1.9998343524198936,-0.11,0.02,-0.15,10.32
7421966.0,-10.746237149504541,10.944409111856938,1.9998343524198936,-0.11,0.02,-0.15,10.32
7422216.0,-10.786474647678734,10.923709369803568,1.989879992034835,-0.1,0.03,-0.15,10.356
7422216.0,-10.786474647678734,10.923709369803568,1.989879992034835,-0.1,0.03,-0.15,10.356
7422467.0,-10.78420446355335,10.92403721888373,1.9923666077795426,-0.09,0.02,-0.15,10.392
7422467.0,-10.78420446355335,10.92403721888373,1.9923666077795426,-0.09,0.02,-0.15,10.392
7422717.0,-10.794595742601878,10.986613704512093,1.9969812543375325,-0.09,0.03,-0.15,10.427
7422717.0,-10.794595742601878,10.986613704512093,1.9969812543375325,-0.09,0.03,-0.15,10.427
7422967.0,-10.811579007973116,10.988795096178265,1.9960564040352304,-0.08,0.03,-0.15,10.462
7422967.0,-10.811579007973116,10.988795096178265,1.9960564040352304,-0.08,0.03,-0.15,10.462
7423217.0,-10.85568068567024,10.969265877793907,1.9894449943620696,-0.08,0.03,-0.15,10.498
7423217.0,-10.85568068567024,10.969265877793907,1.9894449943620696,-0.08,0.03,-0.15,10.498
7423466.0,-10.86102872379036,11.000835865911352,1.9923508129670868,-0.08,0.04,-0.15,10.533
7423466.0,-10.86102872379036,11.000835865911352,1.9923508129670868,-0.08,0.04,-0.15,10.533
7423716.0,-10.892404905290107,11.038957712990133,1.9874789670981639,-0.08,0.04,-0.15,10.569
7423716.0,-10.892404905290107,11.038957712990133,1.9874789670981639,-0.08,0.04,-0.15,10.569
7423966.0,-10.941061465389986,11.08703114568962,1.9841033595442965,-0.08,0.04,-0.15,10.605
7423966.0,-10.941061465389986,11.08703114568962,1.9841033595442965,-0.08,0.04,-0.15,10.605
7424216.0,-10.930988643911508,11.111835831434169,1.9943351963643872,-0.07,0.04,-0.15,10.64
7424216.0,-10.930988643911508,11.111835831434169,1.9943351963643872,-0.07,0.04,-0.15,10.64
7424466.0,-10.957949108112842,11.147956433086135,1.993869462840357,-0.08,0.05,-0.15,10.675
7424466.0,-10.957949108112842,11.147956433086135,1.993869462840357,-0.08,0.05,-0.15,10.675
7424717.0,-11.00767630036512,11.169688387477823,1.993954413318159,-0.07,0.05,-0.15,10.71
7424717.0,-11.00767630036512,11.169688387477823,1.993954413318159,-0.07,0.05,-0.15,10.71
7424967.0,-10.955207640934727,11.235923293180374,2.0053117372474207,-0.07,0.05,-0.15,10.746
7424967.0,-10.955207640934727,11.235923293180374,2.0053117372474207,-0.07,0.05,-0.15,10.746
7425217.0,-12.44898281902121,12.895426181288046,1.7057187227963284,-0.42,-0.31,-0.15,10.781
7425217.0,-12.44898281902121,12.895426181288046,1.7057187227963284,-0.42,-0.31,-0.15,10.781
7425466.0,-18.25302998134063,18.895679065252548,0.7173995279621805,-0.61,-0.52,-0.12,10.813
7425466.0,-18.25302998134063,18.895679065252548,0.7173995279621805,-0.61,-0.52,-0.12,10.813
7425716.0,-21.425336954562443,21.7662043752811,1.1648725412463958,-0.5700000000000001,-0.44,-0.1,10.838000000000001
7425716.0,-21.425336954562443,21.7662043752811,1.1648725412463958,-0.5700000000000001,-0.44,-0.1,10.838000000000001
7425966.0,-22.255520834968106,20.934102919265957,2.4116857947483767,-0.45,-0.3,-0.12,10.864
7425966.0,-22.255520834968106,20.934102919265957,2.4116857947483767,-0.45,-0.3,-0.12,10.864
7426216.0,-22.807770657667607,20.182119582215062,2.971859063771918,-0.35000000000000003,-0.22,-0.15,10.896
7426216.0,-22.807770657667607,20.182119582215062,2.971859063771918,-0.35000000000000003,-0.22,-0.15,10.896
7426466.0,-23.31246699581819,20.911281549701652,2.7989792919160794,-0.24,-0.15,-0.15,10.931000000000001
7426466.0,-23.31246699581819,20.911281549701652,2.7989792919160794,-0.24,-0.15,-0.15,10.931000000000001
7426717.0,-23.31005764658847,21.84958220202674,2.404376211675994,-0.14,-0.05,-0.16,10.968
7426717.0,-23.31005764658847,21.84958220202674,2.404376211675994,-0.14,-0.05,-0.16,10.968
7426967.0,-22.99086583120085,22.24412466433794,2.037861217180528,-0.06,0.05,-0.16,11.006
7426967.0,-22.99086583120085,22.24412466433794,2.037861217180528,-0.06,0.05,-0.16,11.006
7427217.0,-22.75526016332855,22.250405023279765,1.782160278996407,0.0,0.14,-0.16,11.044
7427217.0,-22.75526016332855,22.250405023279765,1.782160278996407,0.0,0.14,-0.16,11.044
7427466.0,-22.629748607140396,22.122079429153565,1.7323889039579357,0.03,0.2,-0.16,11.083
7427466.0,-22.629748607140396,22.122079429153565,1.7323889039579357,0.03,0.2,-0.16,11.083
7427716.0,-22.54101761963276,21.912151857465933,1.8563801027255276,0.07,0.24,-0.16,11.122
7427716.0,-22.54101761963276,21.912151857465933,1.8563801027255276,0.07,0.24,-0.16,11.122
7427966.0,-22.432315158992008,21.687486445096702,2.030756112896422,0.08,0.26,-0.16,11.16
7427966.0,-22.432315158992008,21.687486445096702,2.030756112896422,0.08,0.26,-0.16,11.16
7428216.0,-22.313647452352207,21.533330783076806,2.132178872542411,0.09,0.26,-0.16,11.198
7428216.0,-22.313647452352207,21.533330783076806,2.132178872542411,0.09,0.26,-0.16,11.198
7428466.0,-22.042825329119324,21.474118165614673,2.175483765984173,0.1,0.26,-0.15,11.235
7428466.0,-22.042825329119324,21.474118165614673,2.175483765984173,0.1,0.26,-0.15,11.235
7428717.0,-21.765465007303444,21.424853718678666,2.1100097860438423,0.08,0.25,-0.15,11.272
7428717.0,-21.765465007303444,21.424853718678666,2.1100097860438423,0.08,0.25,-0.15,11.272
7428967.0,-21.52025609345811,21.375799300059633,2.0180047900462434,0.07,0.24,-0.15,11.307
7428967.0,-21.52025609345811,21.375799300059633,2.0180047900462434,0.07,0.24,-0.15,11.307
7429217.0,-21.302386719313045,21.363897695430886,1.9430193447998467,0.04,0.22,-0.15,11.343
7429217.0,-21.302386719313045,21.363897695430886,1.9430193447998467,0.04,0.22,-0.15,11.343
7429467.0,-21.245829337890754,21.360895827290665,1.8930236407358227,0.01,0.2,-0.15,11.379
7429467.0,-21.245829337890754,21.360895827290665,1.8930236407358227,0.01,0.2,-0.15,11.379
7429716.0,-21.254433668697676,21.33824521245561,1.907437687762077,0.0,0.18,-0.15,11.414
7429716.0,-21.254433668697676,21.33824521245561,1.907437687762077,0.0,0.18,-0.15,11.414
7429966.0,-21.32677732483916,21.214671722444447,1.9502629738580568,-0.02,0.16,-0.15,11.449
7429966.0,-21.32677732483916,21.214671722444447,1.9502629738580568,-0.02,0.16,-0.15,11.449
7430216.0,-21.4025924246263,21.111134592363516,1.9947770242263223,-0.04,0.13,-0.15,11.485
7430216.0,-21.4025924246263,21.111134592363516,1.9947770242263223,-0.04,0.13,-0.15,11.485
7430466.0,-21.40002598104567,21.17239285148207,2.0448630148534375,-0.05,0.11,-0.14,11.519
7430466.0,-21.40002598104567,21.17239285148207,2.0448630148534375,-0.05,0.11,-0.14,11.519
7430716.0,-21.40538084935496,21.191271494347983,2.0388189377682107,-0.06,0.1,-0.14,11.554
7430716.0,-21.40538084935496,21.191271494347983,2.0388189377682107,-0.06,0.1,-0.14,11.554
7430967.0,-21.509488300231585,21.168815539904273,1.980745467793589,-0.07,0.08,-0.15,11.589
7430967.0,-21.509488300231585,21.168815539904273,1.980745467793589,-0.07,0.08,-0.15,11.589
7431217.0,-21.56717437041422,21.276566896703102,1.9644584548308706,-0.07,0.06,-0.15,11.624
7431217.0,-21.56717437041422,21.276566896703102,1.9644584548308706,-0.07,0.06,-0.15,11.624
7431467.0,-21.612248496294427,21.367903601379098,1.9738984165940627,-0.07,0.05,-0.15,11.66
7431467.0,-21.612248496294427,21.367903601379098,1.9738984165940627,-0.07,0.05,-0.15,11.66
7431716.0,-21.661950075337316,21.415988133135986,1.988567315053723,-0.08,0.04,-0.15,11.696
7431716.0,-21.661950075337316,21.415988133135986,1.988567315053723,-0.08,0.04,-0.15,11.696
7431966.0,-21.741294675378064,21.458560702232678,1.9917990617481969,-0.08,0.03,-0.15,11.731
7431966.0,-21.741294675378064,21.458560702232678,1.9917990617481969,-0.08,0.03,-0.15,11.731
7432216.0,-21.842043380730335,21.5436272932506,1.9884761747169857,-0.08,0.03,-0.15,11.767
7432216.0,-21.842043380730335,21.5436272932506,1.9884761747169857,-0.08,0.03,-0.15,11.767
7432466.0,-21.844130003521776,21.640224951134797,2.0144471152623127,-0.07,0.03,-0.14,11.802
7432466.0,-21.844130003521776,21.640224951134797,2.0144471152623127,-0.07,0.03,-0.14,11.802
7432716.0,-21.888128374607703,21.67085322692043,2.0034707878226907,-0.07,0.03,-0.14,11.837
7432716.0,-21.888128374607703,21.67085322692043,2.0034707878226907,-0.07,0.03,-0.14,11.837
7432967.0,-21.875835741648974,21.703827672685957,2.006153984949448,-0.06,0.03,-0.14,11.873000000000001
7432967.0,-21.875835741648974,21.703827672685957,2.006153984949448,-0.06,0.03,-0.14,11.873000000000001
7433217.0,-21.845651428159396,21.76468295064348,2.001280644976644,-0.06,0.03,-0.14,11.908
7433217.0,-21.845651428159396,21.76468295064348,2.001280644976644,-0.06,0.03,-0.14,11.908
7433467.0,-21.858598051731153,21.832042276238145,1.9826173665129956,-0.06,0.04,-0.14,11.942
7433467.0,-21.858598051731153,21.832042276238145,1.9826173665129956,-0.06,0.04,-0.14,11.942
7433716.0,-21.880261704231142,21.810178840704936,1.9828254738392694,-0.06,0.04,-0.14,11.976
7433716.0,-21.880261704231142,21.810178840704936,1.9828254738392694,-0.06,0.04,-0.14,11.976
7433966.0,-21.908963866670828,21.83980137113528,1.9899246017078516,-0.06,0.04,-0.14,12.012
7433966.0,-21.908963866670828,21.83980137113528,1.9899246017078516,-0.06,0.04,-0.14,12.012
7434216.0,-21.971806729676825,21.93041236821196,1.9836327168218004,-0.06,0.04,-0.14,12.047
7434216.0,-21.971806729676825,21.93041236821196,1.9836327168218004,-0.06,0.04,-0.14,12.047
7434466.0,-21.989877702673386,21.990125297030797,1.9968734654146931,-0.05,0.04,-0.14,12.083
7434466.0,-21.989877702673386,21.990125297030797,1.9968734654146931,-0.05,0.04,-0.14,12.083
7434716.0,-21.909219998764705,21.94488553906322,2.036505211186869,0.08,0.2,-0.14,12.119
7434716.0,-21.909219998764705,21.94488553906322,2.036505211186869,0.08,0.2,-0.14,12.119
7434967.0,-17.942548364692072,17.449849253818616,3.1328069220345682,0.44,0.61,-0.16,12.156
7434967.0,-17.942548364692072,17.449849253818616,3.1328069220345682,0.44,0.61,-0.16,12.156
7435217.0,-12.293537958795476,12.120436205791611,3.055333793826406,0.49,0.65,-0.19,12.201
7435217.0,-12.293537958795476,12.120436205791611,3.055333793826406,0.49,0.65,-0.19,12.201
7435467.0,-10.240763877335871,11.613396258982068,1.6683987826147904,0.39,0.53,-0.17,12.246
7435467.0,-10.240763877335871,11.613396258982068,1.6683987826147904,0.39,0.53,-0.17,12.246
7435717.0,-9.732570482330242,12.269879037284197,0.8111963813998501,0.27,0.42,-0.15,12.287
7435717.0,-9.732570482330242,12.269879037284197,0.8111963813998501,0.27,0.42,-0.15,12.287
7435966.0,-9.290259384511264,11.664480951331885,0.9287812896127929,0.16,0.34,-0.13,12.322000000000001
7435966.0,-9.290259384511264,11.664480951331885,0.9287812896127929,0.16,0.34,-0.13,12.322000000000001
7436216.0,-9.073298425525808,10.653672718325236,1.5413073182942474,0.04,0.23,-0.13,12.355
7436216.0,-9.073298425525808,10.653672718325236,1.5413073182942474,0.04,0.23,-0.13,12.355
7436466.0,-9.28665219085585,10.270011601135511,2.09219131660316,-0.05,0.12,-0.13,12.387
7436466.0,-9.28665219085585,10.270011601135511,2.09219131660316,-0.05,0.12,-0.13,12.387
7436716.0,-9.579307013770679,10.37466546714574,2.3444112061881017,-0.12,0.02,-0.12,12.417
7436716.0,-9.579307013770679,10.37466546714574,2.3444112061881017,-0.12,0.02,-0.12,12.417
7436966.0,-9.728249533906563,10.617722017628875,2.2985981392170642,-0.18,-0.05,-0.12,12.448
7436966.0,-9.728249533906563,10.617722017628875,2.2985981392170642,-0.18,-0.05,-0.12,12.448
7437217.0,-9.891651564515362,10.849214204073531,2.0744642009426264,-0.22,-0.1,-0.13,12.48
7437217.0,-9.891651564515362,10.849214204073531,2.0744642009426264,-0.22,-0.1,-0.13,12.48
7437467.0,-10.13382872814286,11.147753234958326,1.860389423768325,-0.25,-0.13,-0.13,12.511000000000001
7437467.0,-10.13382872814286,11.147753234958326,1.860389423768325,-0.25,-0.13,-0.13,12.511000000000001
7437717.0,-10.514444434736404,11.381752954602025,1.7639330654225818,-0.26,-0.14,-0.13,12.544
7437717.0,-10.514444434736404,11.381752954602025,1.7639330654225818,-0.26,-0.14,-0.13,12.544
7437966.0,-10.862116431415686,11.596034771885542,1.8141133980376076,-0.26,-0.15,-0.14,12.576
7437966.0,-10.862116431415686,11.596034771885542,1.8141133980376076,-0.26,-0.15,-0.14,12.576
7438216.0,-11.195835205394276,11.803504329245618,1.9191772888414478,-0.25,-0.14,-0.14,12.61
7438216.0,-11.195835205394276,11.803504329245618,1.9191772888414478,-0.25,-0.14,-0.14,12.61
7438466.0,-11.413644815384107,11.963114751091414,2.015602271005691,-0.22,-0.13,-0.14,12.645
7438466.0,-11.413644815384107,11.963114751091414,2.015602271005691,-0.22,-0.13,-0.14,12.645
7438716.0,-11.555066443470158,12.131671013202636,2.051610387979764,-0.2,-0.11,-0.14,12.68
7438716.0,-11.555066443470158,12.131671013202636,2.051610387979764,-0.2,-0.11,-0.14,12.68
7438966.0,-11.662367007783766,12.312636875262124,2.0278287365068373,-0.17,-0.09,-0.14,12.714
7438966.0,-11.662367007783766,12.312636875262124,2.0278287365068373,-0.17,-0.09,-0.14,12.714
7439217.0,-11.752789320884627,12.466167574972962,1.974759660759719,-0.15,-0.07,-0.14,12.75
7439217.0,-11.752789320884627,12.466167574972962,1.974759660759719,-0.15,-0.07,-0.14,12.75
7439467.0,-11.83658976558516,12.678405458147354,1.9236254495384186,-0.13,-0.04,-0.14,12.785
7439467.0,-11.83658976558516,12.678405458147354,1.9236254495384186,-0.13,-0.04,-0.14,12.785
7439717.0,-11.838784817629673,12.822361086415482,1.9174161672526424,-0.11,-0.02,-0.14,12.82
7439717.0,-11.838784817629673,12.822361086415482,1.9174161672526424,-0.11,-0.02,-0.14,12.82
7439966.0,-11.797015649534107,12.854956456682075,1.9432391915137566,-0.1,0.0,-0.14,12.856
7439966.0,-11.797015649534107,12.854956456682075,1.9432391915137566,-0.1,0.0,-0.14,12.856
7440216.0,-11.808707225845875,12.88980408182748,1.952795266492839,-0.08,0.02,-0.14,12.892
7440216.0,-11.808707225845875,12.88980408182748,1.952795266492839,-0.08,0.02,-0.14,12.892
7440466.0,-11.778715011426703,12.958917058491545,1.9652513971048267,-0.07,0.04,-0.14,12.927
7440466.0,-11.778715011426703,12.958917058491545,1.9652513971048267,-0.07,0.04,-0.14,12.927
7440716.0,-11.745203542037682,12.966782875094463,1.9664601271445072,-0.07,0.06,-0.14,12.962
7440716.0,-11.745203542037682,12.966782875094463,1.9664601271445072,-0.07,0.06,-0.14,12.962
7440966.0,-11.73358539025949,12.913960753374523,1.9561858150855156,-0.07,0.08,-0.14,12.997
7440966.0,-11.73358539025949,12.913960753374523,1.9561858150855156,-0.07,0.08,-0.14,12.997
7441217.0,-11.732308998658343,12.871171325771686,1.9452677576972504,-0.07,0.09,-0.14,13.032
7441217.0,-11.732308998658343,12.871171325771686,1.9452677576972504,-0.07,0.09,-0.14,13.032
7441467.0,-11.708919015845636,12.861605645839083,1.94896737234987,-0.07,0.1,-0.14,13.067
7441467.0,-11.708919015845636,12.861605645839083,1.94896737234987,-0.07,0.1,-0.14,13.067
7441717.0,-11.681905617678234,12.919431734899703,1.9539826521913635,-0.07,0.1,-0.14,13.102
7441717.0,-11.681905617678234,12.919431734899703,1.9539826521913635,-0.07,0.1,-0.14,13.102
7441967.0,-11.651928771184695,12.951156256047119,1.9604070854359952,-0.07,0.1,-0.14,13.137
7441967.0,-11.651928771184695,12.951156256047119,1.9604070854359952,-0.07,0.1,-0.14,13.137
7442216.0,-11.597234323858526,12.91676966867069,1.9651088169059026,-0.07,0.11,-0.14,13.171000000000001
7442216.0,-11.597234323858526,12.91676966867069,1.9651088169059026,-0.07,0.11,-0.14,13.171000000000001
7442466.0,-11.525543804556426,12.91009145120971,1.9659926860731847,-0.07,0.11,-0.14,13.207
7442466.0,-11.525543804556426,12.91009145120971,1.9659926860731847,-0.07,0.11,-0.14,13.207
7442716.0,-11.545769702236125,12.939097557067461,1.944470546555063,-0.08,0.11,-0.14,13.242
7442716.0,-11.545769702236125,12.939097557067461,1.944470546555063,-0.08,0.11,-0.14,13.242
7442966.0,-11.55741005212912,12.953645006225942,1.9350359208771597,-0.09,0.11,-0.14,13.278
7442966.0,-11.55741005212912,12.953645006225942,1.9350359208771597,-0.09,0.11,-0.14,13.278
7443216.0,-11.57123093991464,12.93286159435524,1.9471170314150312,-0.09,0.11,-0.14,13.313
7443216.0,-11.57123093991464,12.93286159435524,1.9471170314150312,-0.09,0.11,-0.14,13.313
7443467.0,-11.513023214034146,12.926442070309074,1.9787201032612687,-0.09,0.1,-0.14,13.348
7443467.0,-11.513023214034146,12.926442070309074,1.9787201032612687,-0.09,0.1,-0.14,13.348
7443717.0,-11.573749572171083,12.975625408748689,1.9751519697501716,-0.1,0.1,-0.14,13.384
7443717.0,-11.573749572171083,12.975625408748689,1.9751519697501716,-0.1,0.1,-0.14,13.384
7443967.0,-11.618209834799634,12.993230221334398,1.9755519627034406,-0.1,0.1,-0.14,13.419
7443967.0,-11.618209834799634,12.993230221334398,1.9755519627034406,-0.1,0.1,-0.14,13.419
7444216.0,-11.61704272622521,12.970254318740121,1.9755788565732975,-0.1,0.1,-0.14,13.454
7444216.0,-11.61704272622521,12.970254318740121,1.9755788565732975,-0.1,0.1,-0.14,13.454
7444466.0,-11.629697359209949,12.96949616774225,1.9703093656286326,-0.1,0.1,-0.14,13.489
7444466.0,-11.629697359209949,12.96949616774225,1.9703093656286326,-0.1,0.1,-0.14,13.489
7444716.0,-11.694344245930473,12.99334121190841,1.9575556949009263,-0.1,0.1,-0.14,13.525
7444716.0,-11.694344245930473,12.99334121190841,1.9575556949009263,-0.1,0.1,-0.14,13.525
7444966.0,-11.753427089798377,13.023487959357555,1.9583539732601716,-0.1,0.1,-0.14,13.56
7444966.0,-11.753427089798377,13.023487959357555,1.9583539732601716,-0.1,0.1,-0.14,13.56
7445216.0,-11.79951806009127,13.075221519678523,1.967023831194445,-0.1,0.09,-0.14,13.595
7445216.0,-11.79951806009127,13.075221519678523,1.967023831194445,-0.1,0.09,-0.14,13.595
7445467.0,-11.760836991274195,13.060154122369475,1.990401434289283,-0.1,0.1,-0.14,13.63
7445467.0,-11.760836991274195,13.060154122369475,1.990401434289283,-0.1,0.1,-0.14,13.63
7445717.0,-11.75888611849251,13.011210694324456,1.9834557722336148,-0.1,0.1,-0.14,13.665000000000001
7445717.0,-11.75888611849251,13.011210694324456,1.9834557722336148,-0.1,0.1,-0.14,13.665000000000001
7445967.0,-11.747342245021542,13.017582407046431,1.9731270321046745,-0.09,0.1,-0.14,13.700000000000001
7445967.0,-11.747342245021542,13.017582407046431,1.9731270321046745,-0.09,0.1,-0.14,13.700000000000001
7446216.0,-11.822475179665329,13.137825326063568,1.9444071538618286,-0.28,-0.11,-0.14,13.736
7446216.0,-11.822475179665329,13.137825326063568,1.9444071538618286,-0.28,-0.11,-0.14,13.736
7446466.0,-19.120728675762592,21.11664143238184,0.09503464513185579,-1.09,-1.05,-0.11,13.769
7446466.0,-19.120728675762592,21.11664143238184,0.09503464513185579,-1.09,-1.05,-0.11,13.769
7446716.0,-28.845791072647696,32.686372292000016,-1.8285304332716237,-1.29,-1.27,-0.02,13.787
7446716.0,-28.845791072647696,32.686372292000016,-1.8285304332716237,-1.29,-1.27,-0.02,13.787
7446966.0,-33.140836003899736,34.476916628202616,0.5656202915257736,-1.1,-0.91,-0.01,13.790000000000001
7446966.0,-33.140836003899736,34.476916628202616,0.5656202915257736,-1.1,-0.91,-0.01,13.790000000000001
7447216.0,-35.26619621321636,29.48744294894079,3.598998282182615,-0.8200000000000001,-0.56,-0.09,13.803
7447216.0,-35.26619621321636,29.48744294894079,3.598998282182615,-0.8200000000000001,-0.56,-0.09,13.803
7447467.0,-36.704873109042,26.67322401088253,4.893009210066442,-0.53,-0.47000000000000003,-0.15,13.834
7447467.0,-36.704873109042,26.67322401088253,4.893009210066442,-0.53,-0.47000000000000003,-0.15,13.834
7447717.0,-36.50649367969356,27.777774882700314,4.878496338740634,-0.28,-0.42,-0.18,13.876
7447717.0,-36.50649367969356,27.777774882700314,4.878496338740634,-0.28,-0.42,-0.18,13.876
7447967.0,-34.957628757082695,30.01371585467944,3.897903155074829,-0.14,-0.31,-0.19,13.922
7447967.0,-34.957628757082695,30.01371585467944,3.897903155074829,-0.14,-0.31,-0.19,13.922
7448217.0,-33.31340073328011,31.926605954389892,2.3822927159854617,-0.09,-0.17,-0.19,13.969
7448217.0,-33.31340073328011,31.926605954389892,2.3822927159854617,-0.09,-0.17,-0.19,13.969
7448466.0,-32.21407495617739,33.110981247037614,1.106783916789553,-0.09,-0.03,-0.18,14.014000000000001
7448466.0,-32.21407495617739,33.110981247037614,1.106783916789553,-0.09,-0.03,-0.18,14.014000000000001
7448716.0,-31.894200121872768,33.45995610230108,0.541248308937317,-0.1,0.09,-0.17,14.057
7448716.0,-31.894200121872768,33.45995610230108,0.541248308937317,-0.1,0.09,-0.17,14.057
7448966.0,-32.3088028497763,33.04874114822587,0.7191980021480096,-0.1,0.18,-0.17,14.099
7448966.0,-32.3088028497763,33.04874114822587,0.7191980021480096,-0.1,0.18,-0.17,14.099
7449216.0,-33.101931246387345,32.25510048742707,1.3914285286335437,-0.07,0.23,-0.16,14.138
7449216.0,-33.101931246387345,32.25510048742707,1.3914285286335437,-0.07,0.23,-0.16,14.138
7449466.0,-33.90981285160562,31.43157091882029,2.1419046350336863,-0.03,0.26,-0.15,14.176
7449466.0,-33.90981285160562,31.43157091882029,2.1419046350336863,-0.03,0.26,-0.15,14.176
7449717.0,-34.3363854860296,30.980064678831184,2.6996252258149585,0.04,0.27,-0.15,14.212
7449717.0,-34.3363854860296,30.980064678831184,2.6996252258149585,0.04,0.27,-0.15,14.212
7449967.0,-34.24423940393696,31.11069204670768,2.8714567770766117,0.09,0.28,-0.15,14.249
7449967.0,-34.24423940393696,31.11069204670768,2.8714567770766117,0.09,0.28,-0.15,14.249
7450217.0,-33.82049446782937,31.578539514286042,2.6346297860033516,0.12,0.29,-0.15,14.284
7450217.0,-33.82049446782937,31.578539514286042,2.6346297860033516,0.12,0.29,-0.15,14.284
7450466.0,-33.279464938388905,32.170184160570884,2.1966110351909034,0.13,0.31,-0.15,14.32
7450466.0,-33.279464938388905,32.170184160570884,2.1966110351909034,0.13,0.31,-0.15,14.32
7450716.0,-32.85083983211934,32.61932374001258,1.7685606253069712,0.12,0.34,-0.15,14.355
7450716.0,-32.85083983211934,32.61932374001258,1.7685606253069712,0.12,0.34,-0.15,14.355
7450966.0,-32.67093606447579,32.79998907374859,1.5233998429509434,0.11,0.37,-0.15,14.391
7450966.0,-32.67093606447579,32.79998907374859,1.5233998429509434,0.11,0.37,-0.15,14.391
7451216.0,-32.76712903365166,32.70797276525018,1.5097825801800535,0.1,0.39,-0.15,14.425
7451216.0,-32.76712903365166,32.70797276525018,1.5097825801800535,0.1,0.39,-0.15,14.425
7451466.0,-32.989444860946406,32.39758847879729,1.706444003508819,0.1,0.4,-0.15,14.46
7451466.0,-32.989444860946406,32.39758847879729,1.706444003508819,0.1,0.4,-0.15,14.46
7451717.0,-33.187865271429864,32.06298092645295,1.9816472662074422,0.12,0.39,-0.15,14.495000000000001
7451717.0,-33.187865271429864,32.06298092645295,1.9816472662074422,0.12,0.39,-0.15,14.495000000000001
7451967.0,-33.281677919679986,31.839353702837563,2.1836347429849368,0.13,0.37,-0.15,14.529
7451967.0,-33.281677919679986,31.839353702837563,2.1836347429849368,0.13,0.37,-0.15,14.529
7452217.0,-33.22715593463036,31.718783788513914,2.2378359225869846,0.13,0.34,-0.15,14.564
7452217.0,-33.22715593463036,31.718783788513914,2.2378359225869846,0.13,0.34,-0.15,14.564
7452466.0,-33.10755249207427,31.795179454380506,2.147541248646239,0.12,0.31,-0.15,14.6
7452466.0,-33.10755249207427,31.795179454380506,2.147541248646239,0.12,0.31,-0.15,14.6
7452716.0,-32.87247104122077,31.90827372665758,2.0363173809846935,0.11,0.28,-0.15,14.635
7452716.0,-32.87247104122077,31.90827372665758,2.0363173809846935,0.11,0.28,-0.15,14.635
7452966.0,-32.65475876142661,31.9901062231035,1.9133660785182363,0.1,0.26,-0.15,14.67
7452966.0,-32.65475876142661,31.9901062231035,1.9133660785182363,0.1,0.26,-0.15,14.67
7453216.0,-32.514319826807395,32.01878960252297,1.8216120919726353,0.07,0.23,-0.16,14.706
7453216.0,-32.514319826807395,32.01878960252297,1.8216120919726353,0.07,0.23,-0.16,14.706
7453466.0,-32.58217434111689,32.05830566196608,1.7419717660851695,0.04,0.2,-0.15,14.741
7453466.0,-32.58217434111689,32.05830566196608,1.7419717660851695,0.04,0.2,-0.15,14.741
7453717.0,-32.71932453965074,31.9737069389063,1.7825306033154686,0.03,0.18,-0.15,14.776
7453717.0,-32.71932453965074,31.9737069389063,1.7825306033154686,0.03,0.18,-0.15,14.776
7453967.0,-32.82196179230852,31.784199925289712,1.91400982384751,0.02,0.15,-0.15,14.81
7453967.0,-32.82196179230852,31.784199925289712,1.91400982384751,0.02,0.15,-0.15,14.81
7454217.0,-32.92011844087078,31.690407767607095,2.0157655552155367,0.02,0.12,-0.15,14.845
7454217.0,-32.92011844087078,31.690407767607095,2.0157655552155367,0.02,0.12,-0.15,14.845
7454467.0,-32.96310423641225,31.707384202789164,2.061794200032253,0.01,0.09,-0.15,14.879
7454467.0,-32.96310423641225,31.707384202789164,2.061794200032253,0.01,0.09,-0.15,14.879
7454716.0,-32.98978978549949,31.849346269593294,2.031197300428123,0.01,0.07,-0.15,14.913
7454716.0,-32.98978978549949,31.849346269593294,2.031197300428123,0.01,0.07,-0.15,14.913
7454966.0,-32.96790244430419,31.96969078767433,1.9791819948038907,0.01,0.05,-0.15,14.948
7454966.0,-32.96790244430419,31.96969078767433,1.9791819948038907,0.01,0.05,-0.15,14.948
7455216.0,-32.95270527340091,32.05918334127443,1.917942732148968,0.0,0.05,-0.15,14.983
7455216.0,-32.95270527340091,32.05918334127443,1.917942732148968,0.0,0.05,-0.15,14.983
7455466.0,-32.94069780084003,32.09098128695542,1.8890429211101747,0.0,0.04,-0.16,15.018
7455466.0,-32.94069780084003,32.09098128695542,1.8890429211101747,0.0,0.04,-0.16,15.018
7455716.0,-32.99918471070284,32.174097858965304,1.8709849681617188,0.0,0.03,-0.15,15.053
7455716.0,-32.99918471070284,32.174097858965304,1.8709849681617188,0.0,0.03,-0.15,15.053
7455967.0,-33.02980444875201,32.26748703548689,1.915916727286413,0.0,0.03,-0.15,15.088000000000001
7455967.0,-33.02980444875201,32.26748703548689,1.915916727286413,0.0,0.03,-0.15,15.088000000000001
7456217.0,-33.050103770965286,32.22060461702392,1.9712888574442948,0.0,0.03,-0.15,15.123000000000001
7456217.0,-33.050103770965286,32.22060461702392,1.9712888574442948,0.0,0.03,-0.15,15.123000000000001
7456467.0,-33.09000915119109,32.18387185966759,1.979808451216828,0.0,0.03,-0.15,15.157
7456467.0,-33.09000915119109,32.18387185966759,1.979808451216828,0.0,0.03,-0.15,15.157
7456716.0,-33.13516011669946,32.2243680512566,1.9667267179655494,0.0,0.02,-0.15,15.192
7456716.0,-33.13516011669946,32.2243680512566,1.9667267179655494,0.0,0.02,-0.15,15.192
7456966.0,-33.11091294514591,32.35887496658166,1.9790812495136332,0.0,0.02,-0.16,15.227
7456966.0,-33.11091294514591,32.35887496658166,1.9790812495136332,0.0,0.02,-0.16,15.227
7457216.0,-33.09586262330979,32.42409644296611,1.9608593720250969,0.0,0.02,-0.15,15.262
7457216.0,-33.09586262330979,32.42409644296611,1.9608593720250969,0.0,0.02,-0.15,15.262
7457466.0,-33.057733092268194,32.44176272725435,1.955360429413002,-0.01,0.03,-0.15,15.297
7457466.0,-33.057733092268194,32.44176272725435,1.955360429413002,-0.01,0.03,-0.15,15.297
7457716.0,-33.048935808617216,32.43357674553409,1.9359994044369546,-0.02,0.02,-0.16,15.332
7457716.0,-33.048935808617216,32.43357674553409,1.9359994044369546,-0.02,0.02,-0.16,15.332
7457967.0,-33.04450984603505,32.44591548226972,1.9388187784602888,-0.02,0.01,-0.15,15.367
7457967.0,-33.04450984603505,32.44591548226972,1.9388187784602888,-0.02,0.01,-0.15,15.367
7458217.0,-32.98897016279909,32.50200158063927,1.9649576989705162,-0.03,0.0,-0.15,15.402000000000001
7458217.0,-32.98897016279909,32.50200158063927,1.9649576989705162,-0.03,0.0,-0.15,15.402000000000001
7458467.0,-32.97578789770097,32.525644280451274,1.9438304297637856,-0.04,0.0,-0.15,15.437000000000001
7458467.0,-32.97578789770097,32.525644280451274,1.9438304297637856,-0.04,0.0,-0.15,15.437000000000001
7458716.0,-32.95520512263713,32.54256607411998,1.9419764602909504,-0.05,0.0,-0.15,15.472
7458716.0,-32.95520512263713,32.54256607411998,1.9419764602909504,-0.05,0.0,-0.15,15.472
7458966.0,-32.92701693193249,32.550765716218585,1.9465672011868451,-0.05,0.0,-0.15,15.506
7458966.0,-32.92701693193249,32.550765716218585,1.9465672011868451,-0.05,0.0,-0.15,15.506
7459216.0,-32.92827368673977,32.547616999011204,1.937392336140814,-0.06,0.0,-0.15,15.540000000000001
7459216.0,-32.92827368673977,32.547616999011204,1.937392336140814,-0.06,0.0,-0.15,15.540000000000001
7459466.0,-32.9183835728216,32.5563186600138,1.9465627188752024,-0.07,-0.01,-0.16,15.574
7459466.0,-32.9183835728216,32.5563186600138,1.9465627188752024,-0.07,-0.01,-0.16,15.574
7459716.0,-32.91109576097719,32.57111626485064,1.9522593100864045,-0.07,-0.02,-0.15,15.610000000000001
7459716.0,-32.91109576097719,32.57111626485064,1.9522593100864045,-0.07,-0.02,-0.15,15.610000000000001
7459967.0,-32.89078960857474,32.62310766481277,1.953921820819068,-0.09,-0.03,-0.16,15.645
7459967.0,-32.89078960857474,32.62310766481277,1.953921820819068,-0.09,-0.03,-0.16,15.645
7460217.0,-32.87398051302734,32.62954511810551,1.9438948896740778,-0.09,-0.04,-0.15,15.68
7460217.0,-32.87398051302734,32.62954511810551,1.9438948896740778,-0.09,-0.04,-0.15,15.68
7460467.0,-32.842875831547104,32.65175689328639,1.9407220533611953,-0.11,-0.05,-0.15,15.715
7460467.0,-32.842875831547104,32.65175689328639,1.9407220533611953,-0.11,-0.05,-0.15,15.715
7460717.0,-32.83701552923923,32.64165845859853,1.9362403820486092,-0.12,-0.06,-0.15,15.75
7460717.0,-32.83701552923923,32.64165845859853,1.9362403820486092,-0.12,-0.06,-0.15,15.75
7460966.0,-32.839392435070394,32.6395684207125,1.9435019403533904,-0.13,-0.07,-0.16,15.785
7460966.0,-32.839392435070394,32.6395684207125,1.9435019403533904,-0.13,-0.07,-0.16,15.785
7461216.0,-32.84014717097368,32.652890704688616,1.9505496283597858,-0.13,-0.08,-0.15,15.82
7461216.0,-32.84014717097368,32.652890704688616,1.9505496283597858,-0.13,-0.08,-0.15,15.82
7461466.0,-32.81960537704487,32.666786724555,1.962826253062649,-0.14,-0.09,-0.16,15.855
7461466.0,-32.81960537704487,32.666786724555,1.962826253062649,-0.14,-0.09,-0.16,15.855
7461716.0,-32.799818319019344,32.68407393334431,1.9571142939258144,-0.15,-0.1,-0.16,15.891
7461716.0,-32.799818319019344,32.68407393334431,1.9571142939258144,-0.15,-0.1,-0.16,15.891
7461966.0,-32.783996185807005,32.70160702894373,1.951683439762008,-0.16,-0.11,-0.15,15.926
7461966.0,-32.783996185807005,32.70160702894373,1.951683439762008,-0.16,-0.11,-0.15,15.926
7462217.0,-32.81106422548777,32.67631825354176,1.9231097702560827,-0.17,-0.12,-0.15,15.961
7462217.0,-32.81106422548777,32.67631825354176,1.9231097702560827,-0.17,-0.12,-0.15,15.961
7462467.0,-32.80926447064147,32.68829840534596,1.9304774099364108,0.09,0.21,-0.15,15.996
7462467.0,-32.80926447064147,32.68829840534596,1.9304774099364108,0.09,0.21,-0.15,15.996
7462717.0,-29.52011857393013,28.246129491824547,3.747238573494456,0.96,1.29,-0.19,16.034
7462717.0,-29.52011857393013,28.246129491824547,3.747238573494456,0.96,1.29,-0.19,16.034
7462966.0,-19.545110527010284,17.38920229663078,5.109947970937094,1.31,1.6300000000000001,-0.27,16.088
7462966.0,-19.545110527010284,17.38920229663078,5.109947970937094,1.31,1.6300000000000001,-0.27,16.088
7463216.0,-11.884874934148918,14.186874080685826,2.4560068922725895,1.2,1.42,-0.26,16.153
7463216.0,-11.884874934148918,14.186874080685826,2.4560068922725895,1.2,1.42,-0.26,16.153
7463466.0,-8.495921190643474,15.547684258652378,-0.2966191607586394,0.92,1.18,-0.2,16.207
7463466.0,-8.495921190643474,15.547684258652378,-0.2966191607586394,0.92,1.18,-0.2,16.207
7463716.0,-6.936662854549964,14.680738592586414,-1.0003290152725575,0.63,0.98,-0.15,16.247
7463716.0,-6.936662854549964,14.680738592586414,-1.0003290152725575,0.63,0.98,-0.15,16.247
7463966.0,-6.529511863030919,12.13576741915735,0.019986714326724195,0.34,0.73,-0.12,16.278
7463966.0,-6.529511863030919,12.13576741915735,0.019986714326724195,0.34,0.73,-0.12,16.278
7464217.0,-6.838849849880327,10.569419773592191,1.6061848306209656,0.09,0.44,-0.11,16.304000000000002
7464217.0,-6.838849849880327,10.569419773592191,1.6061848306209656,0.09,0.44,-0.11,16.304000000000002
7464467.0,-7.390575455561033,10.268228067988492,2.708937548418036,-0.11,0.18,-0.11,16.328
7464467.0,-7.390575455561033,10.268228067988492,2.708937548418036,-0.11,0.18,-0.11,16.328
7464717.0,-7.9555439442687454,10.312192288128571,2.92879365383793,-0.27,-0.02,-0.11,16.352
7464717.0,-7.9555439442687454,10.312192288128571,2.92879365383793,-0.27,-0.02,-0.11,16.352
7464966.0,-8.446161554992639,10.623431202001358,2.5000261808128523,-0.39,-0.19,-0.12,16.376
7464966.0,-8.446161554992639,10.623431202001358,2.5000261808128523,-0.39,-0.19,-0.12,16.376
7465216.0,-9.095771455442444,11.084552640794552,1.8782151502850004,-0.47000000000000003,-0.3,-0.13,16.403
7465216.0,-9.095771455442444,11.084552640794552,1.8782151502850004,-0.47000000000000003,-0.3,-0.13,16.403
7465466.0,-9.917153783328898,11.53993586691129,1.4827441024117944,-0.52,-0.39,-0.13,16.431
7465466.0,-9.917153783328898,11.53993586691129,1.4827441024117944,-0.52,-0.39,-0.13,16.431
7465716.0,-10.83592863236421,11.977163596440485,1.4545752283358984,-0.52,-0.43,-0.14,16.461000000000002
7465716.0,-10.83592863236421,11.977163596440485,1.4545752283358984,-0.52,-0.43,-0.14,16.461000000000002
7465966.0,-11.732809310015048,12.328209706569753,1.6799551425253345,-0.49,-0.45,-0.14,16.493000000000002
7465966.0,-11.732809310015048,12.328209706569753,1.6799551425253345,-0.49,-0.45,-0.14,16.493000000000002
7466217.0,-12.467727419424664,12.737826396379171,1.9615216869311765,-0.44,-0.45,-0.15,16.525
7466217.0,-12.467727419424664,12.737826396379171,1.9615216869311765,-0.44,-0.45,-0.15,16.525
7466467.0,-12.970866474444483,13.149189053295176,2.1245551007682075,-0.37,-0.43,-0.15,16.558
7466467.0,-12.970866474444483,13.149189053295176,2.1245551007682075,-0.37,-0.43,-0.15,16.558
7466717.0,-13.313750508515586,13.579976768210697,2.1143364974396337,-0.3,-0.4,-0.15,16.591
7466717.0,-13.313750508515586,13.579976768210697,2.1143364974396337,-0.3,-0.4,-0.15,16.591
7466967.0,-13.493330695947208,14.055302439156577,2.0064291135069525,-0.24,-0.34,-0.15,16.625
7466967.0,-13.493330695947208,14.055302439156577,2.0064291135069525,-0.24,-0.34,-0.15,16.625
7467216.0,-13.52387188682092,14.389084392384992,1.9003310893740901,-0.18,-0.29,-0.15,16.659
7467216.0,-13.52387188682092,14.389084392384992,1.9003310893740901,-0.18,-0.29,-0.15,16.659
7467466.0,-13.478162553347902,14.72751685066454,1.841849088709737,-0.13,-0.23,-0.15,16.694
7467466.0,-13.478162553347902,14.72751685066454,1.841849088709737,-0.13,-0.23,-0.15,16.694
7467716.0,-13.406035755712567,15.021588937832146,1.838180850238617,-0.08,-0.17,-0.16,16.73
7467716.0,-13.406035755712567,15.021588937832146,1.838180850238617,-0.08,-0.17,-0.16,16.73
7467966.0,-13.276656604906893,15.210004828728826,1.8693292876182255,-0.05,-0.11,-0.15,16.766000000000002
7467966.0,-13.276656604906893,15.210004828728826,1.8693292876182255,-0.05,-0.11,-0.15,16.766000000000002
7468216.0,-13.194981202811881,15.39321270038337,1.8867112652822615,-0.03,-0.05,-0.15,16.801000000000002
7468216.0,-13.194981202811881,15.39321270038337,1.8867112652822615,-0.03,-0.05,-0.15,16.801000000000002
7468467.0,-13.028240063472591,15.50268526485304,1.908738411912141,-0.02,0.0,-0.16,16.838
7468467.0,-13.028240063472591,15.50268526485304,1.908738411912141,-0.02,0.0,-0.16,16.838
7468717.0,-12.848109192039137,15.576021005971468,1.9024025576833081,-0.02,0.03,-0.15,16.875
7468717.0,-12.848109192039137,15.576021005971468,1.9024025576833081,-0.02,0.03,-0.15,16.875
7468967.0,-12.744583161015607,15.665995087908046,1.8667357367243247,-0.02,0.06,-0.15,16.912
7468967.0,-12.744583161015607,15.665995087908046,1.8667357367243247,-0.02,0.06,-0.15,16.912
7469216.0,-12.65605281031484,15.747559499429046,1.8475533638837554,-0.03,0.1,-0.15,16.947
7469216.0,-12.65605281031484,15.747559499429046,1.8475533638837554,-0.03,0.1,-0.15,16.947
7469466.0,-12.522385154484045,15.719504497413219,1.8590556158894684,-0.04,0.13,-0.15,16.983
7469466.0,-12.522385154484045,15.719504497413219,1.8590556158894684,-0.04,0.13,-0.15,16.983
7469716.0,-12.33276800406709,15.640072812460556,1.8861042322197767,-0.05,0.15,-0.15,17.02
7469716.0,-12.33276800406709,15.640072812460556,1.8861042322197767,-0.05,0.15,-0.15,17.02
7469966.0,-12.233458761082398,15.559551712335274,1.8836206046828308,-0.07,0.17,-0.15,17.057
7469966.0,-12.233458761082398,15.559551712335274,1.8836206046828308,-0.07,0.17,-0.15,17.057
7470216.0,-12.262549390531127,15.515111086500587,1.8628314298400162,-0.08,0.17,-0.15,17.094
7470216.0,-12.262549390531127,15.515111086500587,1.8628314298400162,-0.08,0.17,-0.15,17.094
7470467.0,-12.290875892566463,15.51231583158276,1.8655649996119021,-0.1,0.18,-0.14,17.131
7470467.0,-12.290875892566463,15.51231583158276,1.8655649996119021,-0.1,0.18,-0.14,17.131
7470717.0,-12.333417725811888,15.368490830682509,1.8787873920714004,-0.11,0.18,-0.14,17.168
7470717.0,-12.333417725811888,15.368490830682509,1.8787873920714004,-0.11,0.18,-0.14,17.168
7470967.0,-12.331331103020448,15.286902513499413,1.9022979704116423,-0.12,0.17,-0.14,17.204
7470967.0,-12.331331103020448,15.286902513499413,1.9022979704116423,-0.12,0.17,-0.14,17.204
7471216.0,-12.271823933650358,15.323090563269433,1.9221580260839237,-0.13,0.17,-0.14,17.239
7471216.0,-12.271823933650358,15.323090563269433,1.9221580260839237,-0.13,0.17,-0.14,17.239
7471466.0,-12.339324131896655,15.307492118752418,1.9003400539973758,-0.14,0.16,-0.14,17.275000000000002
7471466.0,-12.339324131896655,15.307492118752418,1.9003400539973758,-0.14,0.16,-0.14,17.275000000000002
7471716.0,-12.423027246401515,15.281882324459454,1.8844372391754705,-0.14,0.16,-0.14,17.31
7471716.0,-12.423027246401515,15.281882324459454,1.8844372391754705,-0.14,0.16,-0.14,17.31
7471966.0,-12.428801317571116,15.202771658397781,1.904937411639029,-0.14,0.16,-0.14,17.345
7471966.0,-12.428801317571116,15.202771658397781,1.904937411639029,-0.14,0.16,-0.14,17.345
7472216.0,-12.449723040772511,15.13033408715521,1.9122233024927286,-0.14,0.15,-0.14,17.381
7472216.0,-12.449723040772511,15.13033408715521,1.9122233024927286,-0.14,0.15,-0.14,17.381
7472467.0,-12.509161908250901,15.154260239817766,1.9112734793112738,-0.14,0.14,-0.14,17.417
7472467.0,-12.509161908250901,15.154260239817766,1.9112734793112738,-0.14,0.14,-0.14,17.417
7472717.0,-12.56127112897622,15.206116743543795,1.9112702776601003,-0.14,0.13,-0.14,17.453
7472717.0,-12.56127112897622,15.206116743543795,1.9112702776601003,-0.14,0.13,-0.14,17.453
7472967.0,-12.661273636161669,15.226282877068257,1.9011944679738622,-0.14,0.13,-0.14,17.488
7472967.0,-12.661273636161669,15.226282877068257,1.9011944679738622,-0.14,0.13,-0.14,17.488
7473217.0,-12.685782916224614,15.185595440182492,1.913332567902621,-0.13,0.13,-0.13,17.524
7473217.0,-12.685782916224614,15.185595440182492,1.913332567902621,-0.13,0.13,-0.13,17.524
7473466.0,-12.682067293316127,15.218378640651261,1.9275982717578388,-0.13,0.12,-0.14,17.559
7473466.0,-12.682067293316127,15.218378640651261,1.9275982717578388,-0.13,0.12,-0.14,17.559
7473716.0,-12.765623558753832,15.31452038340836,1.923997908291596,-0.13,0.12,-0.14,17.595
7473716.0,-12.765623558753832,15.31452038340836,1.923997908291596,-0.13,0.12,-0.14,17.595
7473966.0,-12.802942004831488,15.305873363919124,1.9318432343270018,-0.12,0.12,-0.13,17.629
7473966.0,-12.802942004831488,15.305873363919124,1.9318432343270018,-0.12,0.12,-0.13,17.629
7474216.0,-12.77118589405916,15.325213044554015,1.9413344225089693,-0.11,0.12,-0.13,17.664
7474216.0,-12.77118589405916,15.325213044554015,1.9413344225089693,-0.11,0.12,-0.13,17.664
7474466.0,-12.725968334206383,15.404294682311715,1.9357612015896504,-0.11,0.12,-0.13,17.698
7474466.0,-12.725968334206383,15.404294682311715,1.9357612015896504,-0.11,0.12,-0.13,17.698
7474717.0,-12.777438932244307,15.337917196410238,1.9030580424002177,-0.11,0.13,-0.14,17.733
7474717.0,-12.777438932244307,15.337917196410238,1.9030580424002177,-0.11,0.13,-0.14,17.733
7474967.0,-12.770592521375017,15.366884028680262,1.90301599404814,-0.11,0.13,-0.14,17.769000000000002
7474967.0,-12.770592521375017,15.366884028680262,1.90301599404814,-0.11,0.13,-0.14,17.769000000000002
7475217.0,-12.735881500013011,15.454062855699013,1.914394662318558,-0.1,0.12,-0.14,17.804000000000002
7475217.0,-12.735881500013011,15.454062855699013,1.914394662318558,-0.1,0.12,-0.14,17.804000000000002
7475466.0,-12.681960571610345,15.482491810571899,1.9289235419002329,-0.1,0.13,-0.13,17.839
7475466.0,-12.681960571610345,15.482491810571899,1.9289235419002329,-0.1,0.13,-0.13,17.839
7475716.0,-12.714794998497888,15.475962149725367,1.9178106106772106,-0.1,0.13,-0.13,17.874
7475716.0,-12.714794998497888,15.475962149725367,1.9178106106772106,-0.1,0.13,-0.13,17.874
7475966.0,-12.738744203048892,15.525170247600723,1.9153515291325944,-0.1,0.13,-0.14,17.909
7475966.0,-12.738744203048892,15.525170247600723,1.9153515291325944,-0.1,0.13,-0.14,17.909
7476216.0,-12.771424096906465,15.527125389250639,1.9190244633587688,-0.11,0.13,-0.14,17.944
7476216.0,-12.771424096906465,15.527125389250639,1.9190244633587688,-0.11,0.13,-0.14,17.944
7476466.0,-12.805469174824394,15.499570698591516,1.925184440216474,-0.11,0.14,-0.14,17.979
7476466.0,-12.805469174824394,15.499570698591516,1.925184440216474,-0.11,0.14,-0.14,17.979
7476717.0,-12.817378463415958,15.516553963962751,1.9267444981115873,-0.11,0.13,-0.13,18.015
7476717.0,-12.817378463415958,15.516553963962751,1.9267444981115873,-0.11,0.13,-0.13,18.015
7476967.0,-12.869251188841265,15.584907082081655,1.9133724818205833,-0.11,0.13,-0.14,18.05
7476967.0,-12.869251188841265,15.584907082081655,1.9133724818205833,-0.11,0.13,-0.14,18.05
7477217.0,-12.83206422390513,15.58385352540218,1.927403824809905,-0.1,0.14,-0.13,18.085
7477217.0,-12.83206422390513,15.58385352540218,1.927403824809905,-0.1,0.14,-0.13,18.085
7477466.0,-12.853922536796464,15.573230873695518,1.9229321853376624,-0.11,0.14,-0.14,18.119
7477466.0,-12.853922536796464,15.573230873695518,1.9229321853376624,-0.11,0.14,-0.14,18.119
7477716.0,-12.899207544767295,15.66547940862571,1.9204163278455704,-0.11,0.13,-0.14,18.155
7477716.0,-12.899207544767295,15.66547940862571,1.9204163278455704,-0.11,0.13,-0.14,18.155
7477966.0,-12.877737698885007,15.684098504303165,1.9259650027725597,-0.11,0.14,-0.13,18.19
7477966.0,-12.877737698885007,15.684098504303165,1.9259650027725597,-0.11,0.14,-0.13,18.19
7478216.0,-12.871132052183958,15.64918940745523,1.9238314224305768,-0.1,0.14,-0.13,18.225
7478216.0,-12.871132052183958,15.64918940745523,1.9238314224305768,-0.1,0.14,-0.13,18.225
7478466.0,-12.809921604389595,15.68983927830056,1.9316820845512719,-0.11,0.14,-0.14,18.26
7478466.0,-12.809921604389595,15.68983927830056,1.9316820845512719,-0.11,0.14,-0.14,18.26
7478717.0,-12.90023804955832,15.711151176058292,1.91070486606287,-0.11,0.14,-0.14,18.295
7478717.0,-12.90023804955832,15.711151176058292,1.91070486606287,-0.11,0.14,-0.14,18.295
7478967.0,-12.878270453640267,15.771593227571028,1.9290302636060144,-0.1,0.13,-0.13,18.331
7478967.0,-12.878270453640267,15.771593227571028,1.9290302636060144,-0.1,0.13,-0.13,18.331
7479217.0,-12.797599943126892,15.758793453066424,1.9406255769391687,-0.1,0.14,-0.14,18.367
7479217.0,-12.797599943126892,15.758793453066424,1.9406255769391687,-0.1,0.14,-0.14,18.367
7479467.0,-12.85064575354215,15.7423309896194,1.9085087468012996,-0.11,0.14,-0.14,18.403
7479467.0,-12.85064575354215,15.7423309896194,1.9085087468012996,-0.11,0.14,-0.14,18.403
7479716.0,-12.882435161486683,15.75930913234876,1.8959520843424658,-0.11,0.14,-0.13,18.438
7479716.0,-12.882435161486683,15.75930913234876,1.8959520843424658,-0.11,0.14,-0.13,18.438
7479966.0,-12.918484899926009,15.796113606691375,1.9023871897576756,-0.11,0.14,-0.13,18.472
7479966.0,-12.918484899926009,15.796113606691375,1.9023871897576756,-0.11,0.14,-0.13,18.472
7480216.0,-12.89733863425565,15.730982630313425,1.9274347741045816,-0.11,0.14,-0.13,18.507
7480216.0,-12.89733863425565,15.730982630313425,1.9274347741045816,-0.11,0.14,-0.13,18.507
7480466.0,-12.92172838600812,15.75723446238837,1.9334585740657098,-0.11,0.14,-0.13,18.542
7480466.0,-12.92172838600812,15.75723446238837,1.9334585740657098,-0.11,0.14,-0.13,18.542
7480717.0,-12.898305106023207,15.804547182769047,1.9423645004131718,-0.1,0.14,-0.13,18.577
7480717.0,-12.898305106023207,15.804547182769047,1.9423645004131718,-0.1,0.14,-0.13,18.577
7480967.0,-12.870087033240946,15.825891523925337,1.9338630493306215,-0.1,0.14,-0.13,18.612000000000002
7480967.0,-12.870087033240946,15.825891523925337,1.9338630493306215,-0.1,0.14,-0.13,18.612000000000002
7481217.0,-12.880045449050824,15.845220959276473,1.9151344571830349,-0.11,0.14,-0.13,18.646
7481217.0,-12.880045449050824,15.845220959276473,1.9151344571830349,-0.11,0.14,-0.13,18.646
7481467.0,-12.956359152647376,15.882105688341834,1.896676084394487,-0.11,0.14,-0.14,18.681
7481467.0,-12.956359152647376,15.882105688341834,1.896676084394487,-0.11,0.14,-0.14,18.681
7481716.0,-13.007324316686718,15.924509210256566,1.9055192583789495,-0.11,0.14,-0.14,18.716
7481716.0,-13.007324316686718,15.924509210256566,1.9055192583789495,-0.11,0.14,-0.14,18.716
7481966.0,-13.070773358981553,15.890549509703263,1.9130969263762556,-0.11,0.14,-0.13,18.751
7481966.0,-13.070773358981553,15.890549509703263,1.9130969263762556,-0.11,0.14,-0.13,18.751
7482216.0,-13.086254836509033,15.866918762722312,1.9303600160600511,-0.11,0.14,-0.14,18.786
7482216.0,-13.086254836509033,15.866918762722312,1.9303600160600511,-0.11,0.14,-0.14,18.786
7482466.0,-13.089178157473798,15.900415717959346,1.935705279415821,-0.1,0.14,-0.13,18.822
7482466.0,-13.089178157473798,15.900415717959346,1.935705279415821,-0.1,0.14,-0.13,18.822
7482716.0,-13.010780392406746,15.882150084571439,1.946476060850108,-0.1,0.14,-0.13,18.856
7482716.0,-13.010780392406746,15.882150084571439,1.946476060850108,-0.1,0.14,-0.13,18.856
7482967.0,-12.933955278396088,15.880693546730935,1.9401079766661287,-0.1,0.14,-0.13,18.891000000000002
7482967.0,-12.933955278396088,15.880693546730935,1.9401079766661287,-0.1,0.14,-0.13,18.891000000000002
7483217.0,-12.945383892424813,15.997313904167024,1.9091678600562056,-0.1,0.13,-0.13,18.926000000000002
7483217.0,-12.945383892424813,15.997313904167024,1.9091678600562056,-0.1,0.13,-0.13,18.926000000000002
7483467.0,-13.02440661980092,16.1143252899331,1.8821962967974717,-0.11,0.13,-0.14,18.962
7483467.0,-13.02440661980092,16.1143252899331,1.8821962967974717,-0.11,0.13,-0.14,18.962
7483716.0,-13.086789298811587,16.095586665945167,1.893231534618685,-0.11,0.14,-0.13,18.996
7483716.0,-13.086789298811587,16.095586665945167,1.893231534618685,-0.11,0.14,-0.13,18.996
7483966.0,-13.063275518820172,16.006116310459877,1.9313085585810368,-0.1,0.14,-0.13,19.031
7483966.0,-13.063275518820172,16.006116310459877,1.9313085585810368,-0.1,0.14,-0.13,19.031
7484216.0,-12.994987287498384,16.057076351857344,1.9498838983591211,-0.1,0.14,-0.13,19.066
7484216.0,-12.994987287498384,16.057076351857344,1.9498838983591211,-0.1,0.14,-0.13,19.066
7484466.0,-13.001325703048156,16.18242398350542,1.9269483365696298,-0.1,0.14,-0.14,19.101
7484466.0,-13.001325703048156,16.18242398350542,1.9269483365696298,-0.1,0.14,-0.14,19.101
7484716.0,-13.083482633479655,16.21760458037286,1.9020717203953856,-0.11,0.14,-0.13,19.136
7484716.0,-13.083482633479655,16.21760458037286,1.9020717203953856,-0.11,0.14,-0.13,19.136
7484967.0,-13.149227473109258,16.134009895121075,1.9043726403720336,-0.11,0.15,-0.14,19.172
7484967.0,-13.149227473109258,16.134009895121075,1.9043726403720336,-0.11,0.15,-0.14,19.172
7485217.0,-13.121300537140367,16.115727186260244,1.9366830636841905,-0.1,0.14,-0.14,19.207
7485217.0,-13.121300537140367,16.115727186260244,1.9366830636841905,-0.1,0.14,-0.14,19.207
7485467.0,-13.07899434542131,16.142050735321472,1.9555002348475756,-0.11,0.15,-0.13,19.242
7485467.0,-13.07899434542131,16.142050735321472,1.9555002348475756,-0.11,0.15,-0.13,19.242
7485717.0,-13.093219068141506,16.15301831158122,1.93997841651531,-0.1,0.14,-0.13,19.277
7485717.0,-13.093219068141506,16.15301831158122,1.93997841651531,-0.1,0.14,-0.13,19.277
7485966.0,-13.007422500656038,16.143696810911447,1.9430588318309858,-0.1,0.15,-0.13,19.311
7485966.0,-13.007422500656038,16.143696810911447,1.9430588318309858,-0.1,0.15,-0.13,19.311
7486216.0,-12.96625951184931,16.13248505538887,1.9211518538418162,-0.1,0.14,-0.14,19.346
7486216.0,-12.96625951184931,16.13248505538887,1.9211518538418162,-0.1,0.14,-0.14,19.346
7486466.0,-13.058742834532222,16.179188181386124,1.8851702038507774,-0.12,0.14,-0.14,19.382
7486466.0,-13.058742834532222,16.179188181386124,1.8851702038507774,-0.12,0.14,-0.14,19.382
7486716.0,-13.165187063878639,16.165012123763763,1.883797335827605,-0.12,0.14,-0.13,19.417
7486716.0,-13.165187063878639,16.165012123763763,1.883797335827605,-0.12,0.14,-0.13,19.417
7486967.0,-13.21676523739599,16.18489480443767,1.9156563263243063,-0.12,0.14,-0.14,19.453
7486967.0,-13.21676523739599,16.18489480443767,1.9156563263243063,-0.12,0.14,-0.14,19.453
7487217.0,-13.221882756631622,16.26360078179102,1.9468634606420945,-0.11,0.14,-0.13,19.487000000000002
7487217.0,-13.221882756631622,16.26360078179102,1.9468634606420945,-0.11,0.14,-0.13,19.487000000000002
7487467.0,-13.141086741392249,16.234290732515202,1.9728395238292993,-0.11,0.14,-0.14,19.522000000000002
7487467.0,-13.141086741392249,16.234290732515202,1.9728395238292993,-0.11,0.14,-0.14,19.522000000000002
7487717.0,-13.120123183282187,16.212560485670807,1.9513788560137075,-0.11,0.14,-0.13,19.557000000000002
7487717.0,-13.120123183282187,16.212560485670807,1.9513788560137075,-0.11,0.14,-0.13,19.557000000000002
7487966.0,-13.118848499228333,16.232000911595954,1.9188312970713044,-0.11,0.14,-0.14,19.591
7487966.0,-13.118848499228333,16.232000911595954,1.9188312970713044,-0.11,0.14,-0.14,19.591
7488216.0,-13.142601335840698,16.270161178488816,1.8933105086809632,-0.11,0.14,-0.13,19.626
7488216.0,-13.142601335840698,16.270161178488816,1.8933105086809632,-0.11,0.14,-0.13,19.626
7488466.0,-13.189534980722442,16.234615166500777,1.8884156109235912,-0.11,0.14,-0.14,19.661
7488466.0,-13.189534980722442,16.234615166500777,1.8884156109235912,-0.11,0.14,-0.14,19.661
7488716.0,-13.218901379058911,16.2207618353167,1.9074118611092776,-0.11,0.14,-0.14,19.696
7488716.0,-13.218901379058911,16.2207618353167,1.9074118611092776,-0.11,0.14,-0.14,19.696
7488966.0,-13.258854570608902,16.24379835583986,1.9262403447734757,-0.11,0.14,-0.14,19.731
7488966.0,-13.258854570608902,16.24379835583986,1.9262403447734757,-0.11,0.14,-0.14,19.731
7489217.0,-13.284128831858887,16.289217406273153,1.9391863280150001,-0.11,0.13,-0.13,19.767
7489217.0,-13.284128831858887,16.289217406273153,1.9391863280150001,-0.11,0.13,-0.13,19.767
7489467.0,-13.278741520151039,16.300480388214503,1.942374532253515,-0.11,0.14,-0.14,19.802
7489467.0,-13.278741520151039,16.300480388214503,1.942374532253515,-0.11,0.14,-0.14,19.802
7489717.0,-13.27028916105315,16.343874287558886,1.9351300494216588,-0.11,0.13,-0.14,19.837
7489717.0,-13.27028916105315,16.343874287558886,1.9351300494216588,-0.11,0.13,-0.14,19.837
7489966.0,-13.284169812993907,16.389749253119277,1.9187072864491863,-0.11,0.13,-0.14,19.873
7489966.0,-13.284169812993907,16.389749253119277,1.9187072864491863,-0.11,0.13,-0.14,19.873
